$GPGGA,205910.350,3932.3162,N,10501.0051,W,0,0,,1715.1,M,-21.0,M,,*49
$GPGSA,A,1,,,,,,,,,,,,,,,*1E
$GPGSV,3,1,11,22,70,333,,14,64,225,,18,56,066,,21,36,147,*73
$GPGSV,3,2,11,24,31,063,,19,29,290,,06,25,244,,03,22,262,*77
$GPGSV,3,3,11,09,15,040,,11,04,318,,15,03,050,*4C
$GPRMC,205910.350,V,3932.3162,N,10501.0051,W,0.00,0.00,120113,,,N*61
$GPGGA,205911.350,3932.3160,N,10501.0050,W,0,1,,1715.2,M,-21.0,M,,*49
$GPGSA,A,1,,,,,,,,,,,,,,,*1E
$GPGSV,3,1,11,22,70,333,,14,64,225,,18,56,066,,21,36,147,27*76
$GPGSV,3,2,11,24,31,063,,19,29,290,,06,25,244,,03,22,262,*77
$GPGSV,3,3,11,09,15,040,,11,04,318,,15,03,050,*4C
$GPRMC,205911.350,V,3932.3160,N,10501.0050,W,0.40,0.00,120113,,,N*67
$GPGGA,205912.350,3932.3155,N,10501.0049,W,0,1,,1715.2,M,-21.0,M,,*44
$GPGSA,A,1,,,,,,,,,,,,,,,*1E
$GPGSV,3,1,11,22,70,333,,14,64,225,,18,56,066,19,21,36,147,33*7B
$GPGSV,3,2,11,24,31,063,,19,29,290,,06,25,244,,03,22,262,*77
$GPGSV,3,3,11,09,15,040,,11,04,318,,15,03,050,*4C
$GPRMC,205912.350,V,3932.3155,N,10501.0049,W,0.35,0.00,120113,,,N*68
$GPGGA,205913.350,3932.3439,N,10501.0540,W,0,4,,1818.8,M,-21.0,M,,*4B
$GPGSA,A,1,,,,,,,,,,,,,,,*1E
$GPGSV,3,1,11,22,70,333,21,14,64,225,,18,56,066,18,21,36,147,32*78
$GPGSV,3,2,11,24,31,063,,19,29,290,,06,25,244,,03,22,262,*77
$GPGSV,3,3,11,09,15,040,29,11,04,318,,15,03,050,*47
$GPRMC,205913.350,V,3932.3439,N,10501.0540,W,0.94,156.84,120113,,,N*6F
$GPGGA,205914.357,3932.3407,N,10501.0342,W,0,4,,1821.7,M,-21.0,M,,*47
$GPGSA,A,1,,,,,,,,,,,,,,,*1E
$GPGSV,3,1,11,22,70,333,23,14,64,225,,18,56,066,19,21,36,147,32*7B
$GPGSV,3,2,11,24,31,063,,19,29,290,,06,25,244,,03,22,262,*77
$GPGSV,3,3,11,09,15,040,28,11,04,318,,15,03,050,*46
$GPRMC,205914.357,V,3932.3407,N,10501.0342,W,1.25,155.58,120113,,,N*6F
$GPGGA,205915.357,3932.3385,N,10501.0377,W,0,3,,1824.4,M,-21.0,M,,*4C
$GPGSA,A,1,,,,,,,,,,,,,,,*1E
$GPGSV,3,1,11,22,70,333,21,14,64,225,,18,56,066,14,21,36,147,30*76
$GPGSV,3,2,11,24,31,063,,19,29,290,,06,25,244,,03,22,262,*77
$GPGSV,3,3,11,09,15,040,26,11,04,318,,15,03,050,*48
$GPRMC,205915.357,V,3932.3385,N,10501.0377,W,1.04,173.63,120113,,,N*6A
$GPGGA,205916.357,3932.3383,N,10501.0380,W,0,3,,1824.7,M,-21.0,M,,*42
$GPGSA,A,1,,,,,,,,,,,,,,,*1E
$GPGSV,3,1,11,22,70,333,24,14,64,225,,18,56,066,14,21,36,147,30*73
$GPGSV,3,2,11,24,31,063,,19,29,290,,06,25,244,,03,22,262,*77
$GPGSV,3,3,11,09,15,040,30,11,04,318,,15,03,050,*4F
$GPRMC,205916.357,V,3932.3383,N,10501.0380,W,1.00,193.89,120113,,,N*69
$GPGGA,205917.367,3932.3363,N,10501.0372,W,0,5,,1829.0,M,-21.0,M,,*4F
$GPGSA,A,1,,,,,,,,,,,,,,,*1E
$GPGSV,3,1,11,22,70,333,25,14,64,225,,18,56,066,16,21,36,147,30*70
$GPGSV,3,2,11,24,31,063,22,19,29,290,,06,25,244,,03,22,262,*77
$GPGSV,3,3,11,09,15,040,27,11,04,318,,15,03,050,*49
$GPRMC,205917.367,V,3932.3363,N,10501.0372,W,0.62,183.81,120113,,,N*64
$GPGGA,205918.443,3932.3268,N,10501.0162,W,1,5,1.80,1789.2,M,-21.0,M,,*59
$GPGSA,A,3,22,18,21,09,24,,,,,,,,2.03,1.80,0.94*02
$GPGSV,3,1,11,22,70,333,24,14,64,225,,18,56,066,17,21,36,147,30*70
$GPGSV,3,2,11,24,31,063,22,19,29,290,,06,25,244,,03,22,262,*77
$GPGSV,3,3,11,09,15,040,28,11,04,318,,15,03,050,*46
$GPRMC,205918.443,A,3932.3268,N,10501.0162,W,1.55,249.42,120113,,,A*74
$GPGGA,205919.510,3932.3180,N,10500.9977,W,1,5,1.80,1754.9,M,-21.0,M,,*55
$GPGSA,A,3,22,18,21,09,24,,,,,,,,2.03,1.80,0.94*02
$GPGSV,3,1,11,22,70,333,23,14,64,225,,18,56,066,18,21,36,147,30*78
$GPGSV,3,2,11,24,31,063,26,19,29,290,,06,25,244,,03,22,262,*73
$GPGSV,3,3,11,09,15,040,27,11,04,318,,15,03,050,*49
$GPRMC,205919.510,A,3932.3180,N,10500.9977,W,1.72,251.49,120113,,,A*74
$GPGGA,205920.568,3932.3111,N,10500.9836,W,1,5,1.80,1730.0,M,-21.0,M,,*57
$GPGSA,A,3,22,18,21,09,24,,,,,,,,2.03,1.80,0.94*02
$GPGSV,3,1,11,22,70,333,21,14,64,225,,18,56,066,18,21,36,147,29*72
$GPGSV,3,2,11,24,31,063,29,19,29,290,,06,25,244,,03,22,262,*7C
$GPGSV,3,3,11,09,15,040,27,11,04,318,,15,03,050,*49
$GPRMC,205920.568,A,3932.3111,N,10500.9836,W,1.62,252.55,120113,,,A*72
$GPGGA,205921.515,3932.3109,N,10500.9842,W,1,5,1.80,1729.9,M,-21.0,M,,*57
$GPGSA,A,3,22,18,21,09,24,,,,,,,,2.03,1.80,0.94*02
$GPGSV,3,1,11,22,70,333,20,14,64,225,,18,56,066,18,21,36,147,29*73
$GPGSV,3,2,11,24,31,063,31,19,29,290,,06,25,244,,03,22,262,*75
$GPGSV,3,3,11,09,15,040,26,11,04,318,,15,03,050,*48
$GPRMC,205921.515,A,3932.3109,N,10500.9842,W,1.23,258.62,120113,,,A*78
$GPGGA,205923.000,3932.3108,N,10500.9848,W,0,4,,1730.0,M,-21.0,M,,*49
$GPGSA,A,1,,,,,,,,,,,,,,,*1E
$GPGSV,3,1,11,22,70,333,20,14,64,225,,18,56,066,18,21,36,147,28*72
$GPGSV,3,2,11,24,31,063,31,19,29,290,,06,25,244,,03,22,262,*75
$GPGSV,3,3,11,09,15,040,27,11,04,318,,15,03,050,17*4F
$GPRMC,205923.000,V,3932.3108,N,10500.9848,W,1.23,258.62,120113,,,N*68
$GPGGA,205924.000,3932.3211,N,10500.9759,W,0,5,,1759.1,M,-21.0,M,,*45
$GPGSA,A,1,,,,,,,,,,,,,,,*1E
$GPGSV,3,1,12,22,70,333,19,14,64,225,,18,56,066,17,51,44,183,*74
$GPGSV,3,2,12,21,36,147,29,24,31,063,30,19,29,290,,06,25,244,*7D
$GPGSV,3,3,12,03,22,262,,09,15,040,27,11,04,318,,15,03,050,15*7B
$GPRMC,205924.000,V,3932.3211,N,10500.9759,W,1.03,276.12,120113,,,N*62
$GPGGA,205925.000,3932.3254,N,10500.9569,W,1,6,1.50,1797.2,M,-21.0,M,,*5D
$GPGSA,A,3,22,18,21,09,14,24,,,,,,,1.77,1.50,0.94*0A
$GPGSV,3,1,12,22,70,333,19,14,64,225,21,18,56,066,18,51,44,183,*78
$GPGSV,3,2,12,21,36,147,30,24,31,063,30,19,29,290,,06,25,244,*75
$GPGSV,3,3,12,03,22,262,,09,15,040,28,11,04,318,,15,03,050,15*74
$GPRMC,205925.000,A,3932.3254,N,10500.9569,W,0.20,276.12,120113,,,A*7B
$GPGGA,205926.000,3932.3221,N,10500.9635,W,1,6,1.50,1780.3,M,-21.0,M,,*51
$GPGSA,A,3,22,18,21,09,14,24,,,,,,,1.77,1.50,0.94*0A
$GPGSV,3,1,12,22,70,333,18,14,64,225,18,18,56,066,19,51,44,183,*72
$GPGSV,3,2,12,21,36,147,31,24,31,063,30,19,29,290,,06,25,244,*74
$GPGSV,3,3,12,03,22,262,19,09,15,040,28,11,04,318,,15,03,050,15*7C
$GPRMC,205926.000,A,3932.3221,N,10500.9635,W,0.09,276.12,120113,,,A*7B
$GPGGA,205927.000,3932.3221,N,10500.9635,W,1,7,1.18,1780.5,M,-21.0,M,,*5B
$GPGSA,A,3,22,18,21,09,14,03,24,,,,,,1.45,1.18,0.85*04
$GPGSV,3,1,12,22,70,333,19,14,64,225,17,18,56,066,26,51,44,183,*70
$GPGSV,3,2,12,21,36,147,31,24,31,063,31,19,29,290,,06,25,244,*75
$GPGSV,3,3,12,03,22,262,17,09,15,040,28,11,04,318,,15,03,050,16*71
$GPRMC,205927.000,A,3932.3221,N,10500.9635,W,0.66,82.31,120113,,,A*4B
$GPGGA,205928.000,3932.3234,N,10500.9655,W,1,7,1.18,1799.2,M,-21.0,M,,*59
$GPGSA,A,3,22,18,21,09,14,03,24,,,,,,1.45,1.18,0.85*04
$GPGSV,3,1,12,22,70,333,19,14,64,225,17,18,56,067,25,51,44,183,*72
$GPGSV,3,2,12,21,36,147,32,24,31,063,31,19,29,290,,06,25,244,*76
$GPGSV,3,3,12,03,22,262,19,09,15,040,30,11,04,318,,15,03,050,16*76
$GPRMC,205928.000,A,3932.3234,N,10500.9655,W,1.14,78.54,120113,,,A*44
$GPGGA,205929.000,3932.3234,N,10500.9651,W,1,7,1.18,1799.3,M,-21.0,M,,*5D
$GPGSA,A,3,22,18,21,09,14,03,24,,,,,,1.45,1.18,0.85*04
$GPGSV,3,1,12,22,70,333,20,14,64,225,16,18,56,067,26,51,44,183,*7A
$GPGSV,3,2,12,21,36,147,33,24,31,063,30,19,29,290,,06,25,244,*76
$GPGSV,3,3,12,03,22,262,19,09,15,040,31,11,04,318,,15,03,050,16*77
$GPRMC,205929.000,A,3932.3234,N,10500.9651,W,1.05,60.27,120113,,,A*4C
$GPGGA,205930.000,3932.3236,N,10500.9648,W,1,7,1.18,1799.3,M,-21.0,M,,*5F
$GPGSA,A,3,22,18,21,09,14,03,24,,,,,,1.45,1.18,0.85*04
$GPGSV,3,1,12,22,70,333,20,14,64,225,17,18,56,067,26,51,44,183,*7B
$GPGSV,3,2,12,21,36,147,33,24,31,063,29,19,29,290,,06,25,244,*7E
$GPGSV,3,3,12,03,22,262,18,09,15,040,30,11,04,318,,15,03,050,17*76
$GPRMC,205930.000,A,3932.3236,N,10500.9648,W,0.83,44.56,120113,,,A*41
$GPGGA,205931.000,3932.3229,N,10500.9694,W,1,7,1.18,1788.9,M,-21.0,M,,*5B
$GPGSA,A,3,22,18,21,09,14,03,24,,,,,,1.45,1.18,0.85*04
$GPGSV,3,1,12,22,70,333,21,14,64,225,17,18,56,067,27,51,44,183,*7B
$GPGSV,3,2,12,21,36,147,31,24,31,063,27,19,29,290,,06,25,244,*72
$GPGSV,3,3,12,03,22,262,18,09,15,040,29,11,04,318,,15,03,050,17*7E
$GPRMC,205931.000,A,3932.3229,N,10500.9694,W,0.67,42.55,120113,,,A*40
$GPGGA,205932.000,3932.3221,N,10500.9715,W,1,7,1.18,1787.9,M,-21.0,M,,*57
$GPGSA,A,3,22,18,21,09,14,03,24,,,,,,1.45,1.18,0.85*04
$GPGSV,3,1,12,22,70,333,21,14,64,225,18,18,56,067,26,51,44,183,*75
$GPGSV,3,2,12,21,36,147,19,24,31,063,26,19,29,290,,06,25,244,*79
$GPGSV,3,3,12,03,22,262,18,09,15,040,28,11,04,318,,15,03,050,17*7F
$GPRMC,205932.000,A,3932.3221,N,10500.9715,W,0.37,42.55,120113,,,A*46
$GPGGA,205933.000,3932.3210,N,10500.9739,W,1,7,1.19,1784.2,M,-21.0,M,,*53
$GPGSA,A,3,22,18,21,09,14,03,24,,,,,,1.98,1.19,1.59*05
$GPGSV,3,1,12,22,70,333,22,14,64,225,18,18,56,067,26,51,44,183,*76
$GPGSV,3,2,12,21,36,147,19,24,31,063,18,19,29,290,,06,25,244,*74
$GPGSV,3,3,12,03,22,262,17,09,15,040,28,11,04,318,,15,03,050,16*71
$GPRMC,205933.000,A,3932.3210,N,10500.9739,W,0.07,42.55,120113,,,A*48
$GPGGA,205934.000,3932.3187,N,10500.9776,W,1,7,1.18,1768.7,M,-21.0,M,,*54
$GPGSA,A,3,22,18,21,09,14,03,24,,,,,,1.45,1.18,0.85*04
$GPGSV,3,1,12,22,70,333,22,14,64,225,18,18,56,067,27,21,36,147,19*75
$GPGSV,3,2,12,48,35,219,,24,31,062,18,19,29,290,,06,25,244,*79
$GPGSV,3,3,12,03,22,262,16,09,15,040,28,11,04,318,,15,03,050,15*73
$GPRMC,205934.000,A,3932.3187,N,10500.9776,W,0.28,42.55,120113,,,A*44
$GPGGA,205935.000,3932.3181,N,10500.9797,W,1,7,1.18,1765.6,M,-21.0,M,,*50
$GPGSA,A,3,22,18,21,09,14,03,24,,,,,,1.45,1.18,0.85*04
$GPGSV,3,1,12,22,70,333,22,14,64,225,18,18,56,067,27,21,36,147,19*75
$GPGSV,3,2,12,48,35,219,,24,31,062,17,19,29,290,,06,25,244,*76
$GPGSV,3,3,12,03,22,262,16,09,15,040,28,11,04,318,,15,03,050,15*73
$GPRMC,205935.000,A,3932.3181,N,10500.9797,W,0.33,42.55,120113,,,A*46
$GPGGA,205936.000,3932.3178,N,10500.9809,W,1,7,1.18,1763.0,M,-21.0,M,,*5D
$GPGSA,A,3,22,18,21,09,14,03,24,,,,,,1.45,1.18,0.85*04
$GPGSV,3,1,12,22,70,333,22,14,64,225,18,18,56,067,27,21,36,147,19*75
$GPGSV,3,2,12,48,35,219,,24,31,062,17,19,29,290,,06,25,244,*76
$GPGSV,3,3,12,03,22,262,16,09,15,040,28,11,04,318,,15,03,050,15*73
$GPRMC,205936.000,A,3932.3178,N,10500.9809,W,0.30,42.55,120113,,,A*48
$GPGGA,205937.000,3932.3177,N,10500.9828,W,1,7,1.18,1760.3,M,-21.0,M,,*50
$GPGSA,A,3,22,18,21,09,14,03,24,,,,,,1.45,1.18,0.85*04
$GPGSV,3,1,12,22,70,333,22,14,64,225,18,18,56,067,28,21,36,147,19*7A
$GPGSV,3,2,12,48,35,219,,24,31,062,17,19,29,290,,06,25,244,*76
$GPGSV,3,3,12,03,22,262,16,09,15,040,28,11,04,318,,15,03,050,15*73
$GPRMC,205937.000,A,3932.3177,N,10500.9828,W,0.47,42.55,120113,,,A*45
$GPGGA,205938.000,3932.3171,N,10500.9837,W,1,7,1.19,1758.9,M,-21.0,M,,*57
$GPGSA,A,3,22,18,21,09,14,03,24,,,,,,1.98,1.19,1.58*04
$GPGSV,3,1,12,22,70,333,22,14,64,225,18,18,56,067,28,21,36,147,19*7A
$GPGSV,3,2,12,48,35,219,,24,31,062,17,19,29,290,,06,25,244,*76
$GPGSV,3,3,12,03,22,262,16,09,15,040,28,11,04,318,,15,03,050,15*73
$GPRMC,205938.000,A,3932.3171,N,10500.9837,W,0.05,42.55,120113,,,A*44
$GPGGA,205939.000,3932.3168,N,10500.9847,W,1,7,1.18,1757.7,M,-21.0,M,,*59
$GPGSA,A,3,22,18,21,09,14,03,24,,,,,,1.45,1.18,0.85*04
$GPGSV,3,1,12,22,70,333,22,14,64,225,18,18,56,067,28,21,36,147,18*7B
$GPGSV,3,2,12,48,35,219,,24,31,062,17,19,29,290,,06,25,244,*76
$GPGSV,3,3,12,03,22,262,16,09,15,040,28,11,04,318,,15,03,050,15*73
$GPRMC,205939.000,A,3932.3168,N,10500.9847,W,0.16,42.55,120113,,,A*48
$GPGGA,205940.000,3932.3168,N,10500.9856,W,1,7,1.18,1756.3,M,-21.0,M,,*52
$GPGSA,A,3,22,18,21,09,14,03,24,,,,,,1.45,1.18,0.85*04
$GPGSV,3,1,12,22,70,333,22,14,64,225,18,18,56,067,28,21,36,147,18*7B
$GPGSV,3,2,12,48,35,219,,24,31,062,17,19,29,290,,06,25,244,*76
$GPGSV,3,3,12,03,22,262,16,09,15,040,28,11,04,318,,15,03,050,*77
$GPRMC,205940.000,A,3932.3168,N,10500.9856,W,0.20,42.55,120113,,,A*43
$GPGGA,205941.000,3932.3169,N,10500.9870,W,1,7,1.19,1754.8,M,-21.0,M,,*5E
$GPGSA,A,3,22,18,21,09,14,03,24,,,,,,1.98,1.19,1.58*04
$GPGSV,3,1,12,22,70,333,22,14,64,225,18,18,56,067,28,21,36,147,18*7B
$GPGSV,3,2,12,48,35,219,,24,31,062,17,19,29,290,,06,25,244,*76
$GPGSV,3,3,12,03,22,262,16,09,15,040,28,11,04,318,,15,03,050,16*70
$GPRMC,205941.000,A,3932.3169,N,10500.9870,W,0.41,42.55,120113,,,A*40
$GPGGA,205942.000,3932.3175,N,10500.9881,W,1,7,1.18,1753.8,M,-21.0,M,,*58
$GPGSA,A,3,22,18,21,09,14,03,24,,,,,,1.45,1.18,0.85*04
$GPGSV,3,1,12,22,70,333,22,14,64,225,18,18,56,067,28,21,36,147,18*7B
$GPGSV,3,2,12,48,35,219,,24,31,062,17,19,29,290,,06,25,244,*76
$GPGSV,3,3,12,03,22,262,16,09,15,040,28,11,04,318,,15,03,050,16*70
$GPRMC,205942.000,A,3932.3175,N,10500.9881,W,0.73,313.88,120113,,,A*76
$GPGGA,205943.000,3932.3177,N,10500.9888,W,1,7,1.18,1752.8,M,-21.0,M,,*53
$GPGSA,A,3,22,18,21,09,14,03,24,,,,,,1.45,1.18,0.85*04
$GPGSV,3,1,12,22,70,333,22,14,64,225,18,18,56,067,28,51,44,183,*78
$GPGSV,3,2,12,21,36,147,18,24,31,062,17,19,29,290,,06,25,244,*7B
$GPGSV,3,3,12,03,22,262,16,09,15,040,28,11,04,318,,15,03,050,16*70
$GPRMC,205943.000,A,3932.3177,N,10500.9888,W,0.70,307.16,120113,,,A*7D
$GPGGA,205944.000,3932.3177,N,10500.9892,W,1,7,1.22,1751.3,M,-21.0,M,,*5E
$GPGSA,A,3,22,18,21,09,14,03,24,,,,,,1.49,1.22,0.85*01
$GPGSV,3,1,12,22,70,333,22,14,64,225,18,18,56,067,28,51,44,183,*78
$GPGSV,3,2,12,21,36,147,18,24,31,062,17,19,29,290,,06,25,244,*7B
$GPGSV,3,3,12,03,22,262,16,09,15,040,28,11,04,318,,15,03,050,*77
$GPRMC,205944.000,A,3932.3177,N,10500.9892,W,0.59,288.11,120113,,,A*7B
$GPGGA,205945.000,3932.3179,N,10500.9902,W,1,6,1.22,1750.4,M,-21.0,M,,*5E
$GPGSA,A,3,22,18,21,09,14,03,,,,,,,1.49,1.22,0.85*07
$GPGSV,3,1,12,22,70,333,22,14,64,225,18,18,56,067,28,51,44,183,*78
$GPGSV,3,2,12,21,36,147,18,24,31,062,,19,29,290,,06,25,244,*7D
$GPGSV,3,3,12,03,22,261,16,09,15,040,28,11,04,318,,15,03,050,*74
$GPRMC,205945.000,A,3932.3179,N,10500.9902,W,0.86,286.87,120113,,,A*7F
$GPGGA,205946.000,3932.3178,N,10500.9907,W,1,6,1.22,1750.3,M,-21.0,M,,*5E
$GPGSA,A,3,22,18,21,09,14,03,,,,,,,1.49,1.22,0.85*07
$GPGSV,3,1,12,22,70,333,22,14,64,225,18,18,56,067,28,51,44,183,*78
$GPGSV,3,2,12,21,36,147,18,24,31,062,,19,29,290,,06,25,244,*7D
$GPGSV,3,3,12,03,22,261,16,09,15,040,28,11,04,318,,15,03,050,*74
$GPRMC,205946.000,A,3932.3178,N,10500.9907,W,1.01,263.85,120113,,,A*7F
$GPGGA,205947.000,3932.3183,N,10500.9905,W,1,6,1.22,1750.9,M,-21.0,M,,*53
$GPGSA,A,3,22,18,21,09,14,03,,,,,,,1.49,1.22,0.85*07
$GPGSV,3,1,12,22,70,333,22,14,64,225,18,18,56,067,28,51,44,183,*78
$GPGSV,3,2,12,21,36,147,17,24,31,062,,19,29,290,,06,25,244,*72
$GPGSV,3,3,12,03,22,261,16,09,15,040,27,11,04,318,,15,03,050,*7B
$GPRMC,205947.000,A,3932.3183,N,10500.9905,W,0.88,276.54,120113,,,A*70
$GPGGA,205948.000,3932.3188,N,10500.9903,W,1,6,1.22,1751.8,M,-21.0,M,,*51
$GPGSA,A,3,22,18,21,09,14,03,,,,,,,1.49,1.22,0.85*07
$GPGSV,3,1,12,22,70,333,22,14,64,225,18,18,56,067,28,51,44,183,*78
$GPGSV,3,2,12,21,36,147,17,24,31,062,,19,29,290,,06,25,244,*72
$GPGSV,3,3,12,03,22,261,16,09,15,040,27,11,04,318,,15,03,050,*7B
$GPRMC,205948.000,A,3932.3188,N,10500.9903,W,0.83,292.21,120113,,,A*71
$GPGGA,205949.000,3932.3190,N,10500.9902,W,1,6,1.22,1752.9,M,-21.0,M,,*5A
$GPGSA,A,3,22,18,21,09,14,03,,,,,,,1.49,1.22,0.85*07
$GPGSV,3,1,12,22,70,333,22,14,64,225,18,18,56,067,28,51,44,183,*78
$GPGSV,3,2,12,21,36,147,17,24,31,062,,19,29,290,,06,25,244,*72
$GPGSV,3,3,12,03,22,261,16,09,15,040,27,11,04,318,,15,03,050,*7B
$GPRMC,205949.000,A,3932.3190,N,10500.9902,W,0.82,280.21,120113,,,A*7A
$GPGGA,205950.000,3932.3200,N,10500.9906,W,1,6,1.22,1753.3,M,-21.0,M,,*57
$GPGSA,A,3,22,18,21,09,14,03,,,,,,,1.49,1.22,0.85*07
$GPGSV,3,1,12,22,70,333,22,14,64,225,18,18,56,067,28,51,44,183,*78
$GPGSV,3,2,12,21,36,147,17,24,31,062,,19,29,290,,06,25,244,*72
$GPGSV,3,3,12,03,22,261,16,09,15,040,27,11,04,318,,15,03,050,*7B
$GPRMC,205950.000,A,3932.3200,N,10500.9906,W,0.97,299.52,120113,,,A*74
$GPGGA,205951.000,3932.3209,N,10500.9910,W,1,6,1.22,1753.9,M,-21.0,M,,*52
$GPGSA,A,3,22,18,21,09,14,03,,,,,,,1.49,1.22,0.85*07
$GPGSV,3,1,12,22,70,333,22,14,64,225,18,18,56,067,27,51,44,183,*77
$GPGSV,3,2,12,21,36,147,17,24,31,062,,19,29,290,,06,25,244,*72
$GPGSV,3,3,12,03,22,261,16,09,15,040,27,11,04,318,,15,03,050,*7B
$GPRMC,205951.000,A,3932.3209,N,10500.9910,W,1.11,306.31,120113,,,A*76
$GPGGA,205952.000,3932.3214,N,10500.9912,W,1,7,1.17,1753.6,M,-21.0,M,,*57
$GPGSA,A,3,22,18,21,09,14,03,06,,,,,,1.43,1.17,0.83*0B
$GPGSV,3,1,12,22,70,333,22,14,64,225,18,18,56,067,27,21,36,147,17*7B
$GPGSV,3,2,12,48,35,219,,24,31,062,,19,29,290,,06,25,244,19*78
$GPGSV,3,3,12,03,22,261,16,09,15,040,27,11,04,318,,15,03,050,*7B
$GPRMC,205952.000,A,3932.3214,N,10500.9912,W,1.02,297.02,120113,,,A*70
$GPGGA,205953.000,3932.3221,N,10500.9914,W,1,8,1.13,1753.7,M,-21.0,M,,*5C
$GPGSA,A,3,22,18,21,09,14,03,06,24,,,,,1.40,1.13,0.83*0A
$GPGSV,3,1,12,22,70,333,22,14,64,225,18,18,56,067,27,21,36,147,17*7B
$GPGSV,3,2,12,48,35,219,,24,31,062,17,19,29,290,,06,25,244,20*74
$GPGSV,3,3,12,03,22,261,16,09,15,040,27,11,04,318,,15,03,050,*7B
$GPRMC,205953.000,A,3932.3221,N,10500.9914,W,0.82,308.69,120113,,,A*72
$GPGGA,205954.000,3932.3227,N,10500.9920,W,1,8,1.13,1753.5,M,-21.0,M,,*58
$GPGSA,A,3,22,18,21,09,14,03,06,24,,,,,1.40,1.13,0.83*0A
$GPGSV,3,1,12,22,70,333,22,14,64,225,18,18,56,067,27,21,36,147,17*7B
$GPGSV,3,2,12,48,35,219,,24,31,062,17,19,29,290,,06,25,244,18*7F
$GPGSV,3,3,12,03,22,261,16,09,15,040,27,11,04,318,,15,03,050,*7B
$GPRMC,205954.000,A,3932.3227,N,10500.9920,W,0.69,306.92,120113,,,A*7B
$GPGGA,205955.000,3932.3235,N,10500.9924,W,1,8,1.13,1753.7,M,-21.0,M,,*5C
$GPGSA,A,3,22,18,21,09,14,03,06,24,,,,,1.40,1.13,0.83*0A
$GPGSV,3,1,12,22,70,333,22,14,64,225,18,18,56,067,27,21,36,147,17*7B
$GPGSV,3,2,12,48,35,219,,24,31,062,17,19,29,290,,06,25,244,20*74
$GPGSV,3,3,12,03,22,261,15,09,15,040,27,11,04,318,,15,03,050,*78
$GPRMC,205955.000,A,3932.3235,N,10500.9924,W,0.73,328.15,120113,,,A*75
$GPGGA,205956.000,3932.3242,N,10500.9934,W,1,8,1.13,1753.5,M,-21.0,M,,*5C
$GPGSA,A,3,22,18,21,09,14,03,06,24,,,,,1.40,1.13,0.83*0A
$GPGSV,3,1,12,22,70,333,22,14,65,225,18,18,56,067,27,21,36,147,17*7A
$GPGSV,3,2,12,48,35,219,,24,31,062,17,19,29,290,,06,25,244,20*74
$GPGSV,3,3,12,03,22,261,14,09,15,040,27,11,04,318,,15,03,050,*79
$GPRMC,205956.000,A,3932.3242,N,10500.9934,W,0.67,324.50,120113,,,A*7F
$GPGGA,205957.000,3932.3250,N,10500.9939,W,1,8,1.13,1753.1,M,-21.0,M,,*57
$GPGSA,A,3,22,18,21,09,14,03,06,24,,,,,1.40,1.13,0.83*0A
$GPGSV,3,1,12,22,70,333,22,14,65,225,18,18,56,067,27,21,36,147,17*7A
$GPGSV,3,2,12,48,35,219,,24,31,062,17,19,29,290,,06,25,244,20*74
$GPGSV,3,3,12,03,22,261,14,09,15,040,27,11,04,318,,15,03,051,*78
$GPRMC,205957.000,A,3932.3250,N,10500.9939,W,0.00,326.51,120113,,,A*72
$GPGGA,205958.000,3932.3260,N,10500.9950,W,1,8,1.13,1752.8,M,-21.0,M,,*5C
$GPGSA,A,3,22,18,21,09,14,03,06,24,,,,,1.40,1.13,0.83*0A
$GPGSV,3,1,12,22,70,333,22,14,65,225,18,18,56,067,27,21,36,147,17*7A
$GPGSV,3,2,12,48,35,219,,24,31,062,17,19,29,290,,06,25,244,20*74
$GPGSV,3,3,12,03,22,261,14,09,15,040,27,11,04,318,,15,03,051,*78
$GPRMC,205958.000,A,3932.3260,N,10500.9950,W,0.00,328.41,120113,,,A*7E
$GPGGA,205959.000,3932.3269,N,10500.9963,W,1,7,1.25,1752.0,M,-21.0,M,,*56
$GPGSA,A,3,22,18,21,09,14,06,24,,,,,,2.04,1.25,1.61*02
$GPGSV,3,1,12,22,70,333,22,14,65,225,18,18,56,067,27,21,36,147,17*7A
$GPGSV,3,2,12,48,35,219,,24,31,062,17,19,29,290,,06,25,244,20*74
$GPGSV,3,3,12,03,22,261,,09,15,040,26,11,04,318,,15,03,051,*7C
$GPRMC,205959.000,A,3932.3269,N,10500.9963,W,0.00,329.66,120113,,,A*72
$GPGGA,210000.000,3932.3269,N,10500.9963,W,1,7,1.24,1752.0,M,-21.0,M,,*56
$GPGSA,A,3,22,18,21,09,14,06,24,,,,,,1.50,1.24,0.85*0A
$GPGSV,3,1,12,22,70,333,22,14,65,225,18,18,56,067,27,21,36,147,17*7A
$GPGSV,3,2,12,48,35,219,,24,31,062,17,19,29,290,,06,25,244,20*74
$GPGSV,3,3,12,03,22,261,,09,15,040,26,11,04,318,,15,03,051,*7C
$GPRMC,210000.000,A,3932.3269,N,10500.9963,W,0.00,329.66,120113,,,A*73
$GPGGA,210001.000,3932.3269,N,10500.9963,W,1,7,1.24,1752.0,M,-21.0,M,,*57
$GPGSA,M,3,22,18,21,09,14,06,24,,,,,,1.50,1.24,0.85*06
$GPGSV,3,1,12,22,70,333,22,14,65,225,18,18,56,067,27,21,36,147,17*7A
$GPGSV,3,2,12,24,31,062,17,19,29,289,,06,25,244,20,03,22,261,*7A
$GPGSV,3,3,12,09,15,040,26,11,04,318,,15,03,051,,34,,,*4D
$GPRMC,210001.000,A,3932.3269,N,10500.9963,W,0.00,329.66,120113,,,A*72
$GPGGA,210002.000,3932.3269,N,10500.9963,W,1,7,1.24,1752.0,M,-21.0,M,,*54
$GPGSA,M,3,22,18,21,09,14,06,24,,,,,,1.50,1.24,0.85*06
$GPGSV,3,1,12,22,70,333,22,14,65,225,18,18,56,067,27,21,36,147,17*7A
$GPGSV,3,2,12,24,31,062,17,19,29,289,,06,25,244,20,03,22,261,*7A
$GPGSV,3,3,12,09,15,040,26,11,04,318,,15,03,051,,34,,,*4D
$GPRMC,210002.000,A,3932.3269,N,10500.9963,W,0.00,329.66,120113,,,A*71
$GPGGA,210003.000,3932.3269,N,10500.9963,W,1,7,1.24,1752.0,M,-21.0,M,,*55
$GPGSA,M,3,22,18,21,09,14,06,24,,,,,,1.50,1.24,0.85*06
$GPGSV,3,1,12,22,70,333,22,14,65,225,18,18,56,067,27,21,36,147,17*7A
$GPGSV,3,2,12,24,31,062,17,19,29,289,,06,25,244,20,03,22,261,*7A
$GPGSV,3,3,12,09,15,040,26,11,04,318,,15,03,051,,34,,,*4D
$GPRMC,210003.000,A,3932.3269,N,10500.9963,W,0.00,329.66,120113,,,A*70
$GPGGA,210004.000,3932.3269,N,10500.9963,W,1,7,1.24,1752.0,M,-21.0,M,,*52
$GPGSA,M,3,22,18,21,09,14,06,24,,,,,,1.50,1.24,0.85*06
$GPGSV,3,1,12,22,70,334,23,14,65,225,18,18,56,067,27,21,36,147,17*7C
$GPGSV,3,2,12,24,31,062,17,19,29,289,,06,25,244,20,03,22,261,*7A
$GPGSV,3,3,12,09,15,040,26,11,04,318,,15,03,051,,34,,,*4D
$GPRMC,210004.000,A,3932.3269,N,10500.9963,W,0.00,329.66,120113,,,A*77
$GPGGA,210005.000,3932.3269,N,10500.9963,W,1,7,1.24,1752.0,M,-21.0,M,,*53
$GPGSA,M,3,22,18,21,09,14,06,24,,,,,,1.50,1.24,0.85*06
$GPGSV,3,1,12,22,70,334,23,14,65,225,18,18,56,067,27,21,36,147,17*7C
$GPGSV,3,2,12,24,31,062,17,19,29,289,,06,25,244,19,03,22,261,*70
$GPGSV,3,3,12,09,15,040,26,11,04,318,,15,03,051,,34,,,*4D
$GPRMC,210005.000,A,3932.3269,N,10500.9963,W,0.00,329.66,120113,,,A*76
$GPGGA,210006.000,3932.3269,N,10500.9963,W,1,7,1.24,1752.0,M,-21.0,M,,*50
$GPGSA,M,3,22,18,21,09,14,06,24,,,,,,1.50,1.24,0.85*06
$GPGSV,3,1,12,22,70,334,23,14,65,225,19,18,56,067,27,21,36,147,17*7D
$GPGSV,3,2,12,24,31,062,16,19,29,289,,06,25,244,19,03,22,261,*71
$GPGSV,3,3,12,09,15,040,26,11,04,318,,15,03,051,,34,,,*4D
$GPRMC,210006.000,A,3932.3269,N,10500.9963,W,0.00,329.66,120113,,,A*75
$GPGGA,210007.000,3932.3269,N,10500.9963,W,1,7,1.24,1752.0,M,-21.0,M,,*51
$GPGSA,M,3,22,18,21,09,14,06,24,,,,,,1.50,1.24,0.85*06
$GPGSV,3,1,12,22,70,334,23,14,65,225,19,18,56,067,27,21,36,147,17*7D
$GPGSV,3,2,12,24,31,062,16,19,29,289,,06,25,244,19,03,22,261,*71
$GPGSV,3,3,12,09,15,040,26,11,04,318,,15,03,051,,35,,,*4C
$GPRMC,210007.000,A,3932.3269,N,10500.9963,W,0.00,329.66,120113,,,A*74
$GPGGA,210008.000,3932.3269,N,10500.9963,W,1,7,1.24,1752.0,M,-21.0,M,,*5E
$GPGSA,M,3,22,18,21,09,14,06,24,,,,,,1.50,1.24,0.85*06
$GPGSV,3,1,12,22,70,334,23,14,65,225,19,18,56,067,27,21,36,147,16*7C
$GPGSV,3,2,12,24,31,062,16,19,29,289,,06,25,244,19,03,22,261,*71
$GPGSV,3,3,12,09,15,040,26,11,04,318,,15,03,051,,35,,,*4C
$GPRMC,210008.000,A,3932.3269,N,10500.9963,W,0.00,329.66,120113,,,A*7B
$GPGGA,210009.000,3932.3269,N,10500.9963,W,1,7,1.24,1752.0,M,-21.0,M,,*5F
$GPGSA,M,3,22,18,21,09,14,06,24,,,,,,1.50,1.24,0.85*06
$GPGSV,3,1,12,22,70,334,23,14,65,225,19,18,56,067,27,21,36,147,15*7F
$GPGSV,3,2,12,24,31,062,16,19,29,289,,06,25,244,19,03,22,261,*71
$GPGSV,3,3,12,09,15,040,26,11,04,318,,15,03,051,,35,,,*4C
$GPRMC,210009.000,A,3932.3269,N,10500.9963,W,0.00,329.66,120113,,,A*7A
$GPGGA,210010.000,3932.3269,N,10500.9963,W,1,7,1.24,1752.0,M,-21.0,M,,*57
$GPGSA,M,3,22,18,21,09,14,06,24,,,,,,1.50,1.24,0.85*06
$GPGSV,3,1,12,22,70,334,24,14,65,225,19,18,56,067,27,21,36,147,16*7B
$GPGSV,3,2,12,24,31,062,16,19,29,289,,06,25,244,20,03,22,261,*7B
$GPGSV,3,3,12,09,15,040,26,11,04,318,,15,03,051,,35,,,*4C
$GPRMC,210010.000,A,3932.3269,N,10500.9963,W,0.00,329.66,120113,,,A*72
$GPGGA,210011.000,3932.3269,N,10500.9963,W,1,7,1.24,1752.0,M,-21.0,M,,*56
$GPGSA,M,3,22,18,21,09,14,06,24,,,,,,1.50,1.24,0.85*06
$GPGSV,3,1,12,22,70,334,24,14,65,225,19,18,56,067,26,21,36,147,15*79
$GPGSV,3,2,12,24,31,062,16,19,29,289,,06,25,244,20,03,22,261,*7B
$GPGSV,3,3,12,09,15,040,19,11,04,318,,15,03,051,,35,,,*40
$GPRMC,210011.000,A,3932.3269,N,10500.9963,W,0.00,329.66,120113,,,A*73
$GPGGA,210012.000,3932.3269,N,10500.9963,W,1,7,1.24,1752.0,M,-21.0,M,,*55
$GPGSA,M,3,22,18,21,09,14,06,24,,,,,,1.50,1.24,0.85*06
$GPGSV,3,1,12,22,70,334,24,14,65,225,19,18,56,067,25,21,36,147,15*7A
$GPGSV,3,2,12,24,31,062,23,19,29,289,,06,25,244,20,03,22,261,*7D
$GPGSV,3,3,12,09,15,040,20,11,04,318,,15,03,051,,35,,,*4A
$GPRMC,210012.000,A,3932.3269,N,10500.9963,W,0.00,329.66,120113,,,A*70
$GPGGA,210013.000,3932.3349,N,10501.0081,W,1,7,1.24,1747.3,M,-21.0,M,,*5D
$GPGSA,M,3,22,18,21,09,14,06,24,,,,,,1.50,1.24,0.85*06
$GPGSV,3,1,12,22,70,334,23,14,65,225,20,18,56,067,26,21,36,147,15*74
$GPGSV,3,2,12,24,31,062,30,19,29,289,,06,25,244,19,03,22,261,*75
$GPGSV,3,3,12,09,15,040,22,11,04,318,,15,03,051,,36,,,*4B
$GPRMC,210013.000,A,3932.3349,N,10501.0081,W,1.63,313.58,120113,,,A*7F
$GPGGA,210014.000,3932.3379,N,10501.0104,W,1,8,1.13,1748.4,M,-21.0,M,,*56
$GPGSA,M,3,22,18,21,09,14,03,06,24,,,,,1.40,1.13,0.83*06
$GPGSV,3,1,12,22,70,334,24,14,65,225,20,18,56,067,27,21,36,147,31*74
$GPGSV,3,2,12,24,31,062,30,19,29,289,,06,25,244,19,03,22,261,18*7C
$GPGSV,3,3,12,09,15,040,21,11,04,318,,15,03,051,,36,,,*48
$GPRMC,210014.000,A,3932.3379,N,10501.0104,W,1.66,314.54,120113,,,A*79
$GPGGA,210015.000,3932.3340,N,10501.0080,W,1,8,1.13,1746.2,M,-21.0,M,,*58
$GPGSA,M,3,22,18,21,09,14,03,06,24,,,,,1.40,1.13,0.83*06
$GPGSV,3,1,12,22,70,334,23,14,65,225,19,18,56,067,25,21,36,147,32*78
$GPGSV,3,2,12,24,31,062,28,19,29,289,,06,25,244,18,03,22,261,15*79
$GPGSV,3,3,12,09,15,040,21,11,04,318,,15,03,051,,36,,,*48
$GPRMC,210015.000,A,3932.3340,N,10501.0080,W,0.00,313.06,120113,,,A*7E
$GPGGA,210016.000,3932.3324,N,10501.0074,W,1,8,1.13,1745.3,M,-21.0,M,,*50
$GPGSA,M,3,22,18,21,09,14,03,06,24,,,,,1.40,1.13,0.83*06
$GPGSV,3,1,12,22,70,334,23,14,65,225,18,18,56,067,18,21,36,147,32*77
$GPGSV,3,2,12,24,31,062,28,19,29,289,,06,25,244,18,03,22,261,17*7B
$GPGSV,3,3,12,09,15,040,23,11,04,318,,15,03,051,17,36,,,*4C
$GPRMC,210016.000,A,3932.3324,N,10501.0074,W,0.00,313.41,120113,,,A*77
$GPGGA,210017.000,3932.3318,N,10501.0068,W,1,7,1.14,1745.2,M,-21.0,M,,*5A
$GPGSA,M,3,22,18,21,09,03,06,24,,,,,,1.43,1.14,0.86*02
$GPGSV,3,1,12,22,70,334,24,14,65,225,17,18,56,067,26,21,36,147,31*71
$GPGSV,3,2,12,24,31,062,35,19,29,289,,06,25,244,18,03,22,261,17*77
$GPGSV,3,3,12,09,15,040,24,11,04,318,,15,03,051,17,36,,,*4B
$GPRMC,210017.000,A,3932.3318,N,10501.0068,W,0.00,313.66,120113,,,A*71
$GPGGA,210018.000,3932.3318,N,10501.0068,W,1,8,1.13,1745.2,M,-21.0,M,,*5D
$GPGSA,M,3,22,18,21,09,14,03,06,24,,,,,1.40,1.13,0.83*06
$GPGSV,3,1,12,22,70,334,26,14,65,225,18,18,56,067,27,21,36,147,30*7C
$GPGSV,3,2,12,24,31,062,33,19,29,289,,06,25,244,18,03,22,261,17*71
$GPGSV,3,3,12,09,15,040,23,11,04,318,,15,03,051,13,36,,,*48
$GPRMC,210018.000,A,3932.3318,N,10501.0068,W,0.00,313.66,120113,,,A*7E
$GPGGA,210019.000,3932.3318,N,10501.0068,W,1,8,1.13,1745.2,M,-21.0,M,,*5C
$GPGSA,M,3,22,18,21,09,14,03,06,24,,,,,1.40,1.13,0.83*06
$GPGSV,3,1,12,22,70,334,26,14,65,225,18,18,56,067,28,21,36,147,29*7B
$GPGSV,3,2,12,24,31,062,33,19,29,289,,06,25,244,17,03,22,261,18*71
$GPGSV,3,3,12,09,15,040,24,11,04,318,,15,03,051,13,36,,,*4F
$GPRMC,210019.000,A,3932.3318,N,10501.0068,W,0.00,313.66,120113,,,A*7F
$GPGGA,210020.000,3932.3318,N,10501.0068,W,1,8,1.13,1745.2,M,-21.0,M,,*56
$GPGSA,M,3,22,18,21,09,14,03,06,24,,,,,1.40,1.13,0.83*06
$GPGSV,3,1,12,22,70,334,25,14,65,225,18,18,56,067,28,21,36,147,30*70
$GPGSV,3,2,12,24,31,062,25,19,29,289,,06,25,243,17,03,22,261,18*71
$GPGSV,3,3,12,09,15,040,32,11,04,318,,15,03,051,14,38,,,*41
$GPRMC,210020.000,A,3932.3318,N,10501.0068,W,0.00,313.66,120113,,,A*75
$GPGGA,210021.000,3932.3318,N,10501.0068,W,1,7,1.21,1745.2,M,-21.0,M,,*59
$GPGSA,M,3,18,21,09,14,03,06,24,,,,,,1.50,1.21,0.89*0C
$GPGSV,3,1,12,22,70,334,17,14,65,225,18,18,56,067,26,21,36,147,30*7F
$GPGSV,3,2,12,24,31,062,25,19,29,289,,06,25,243,16,03,22,261,18*70
$GPGSV,3,3,12,09,15,040,32,11,04,318,,15,03,051,15,38,,,*40
$GPRMC,210021.000,A,3932.3318,N,10501.0068,W,0.00,313.66,120113,,,A*74
$GPGGA,210022.000,3932.3318,N,10501.0068,W,1,8,1.13,1745.2,M,-21.0,M,,*54
$GPGSA,M,3,22,18,21,09,14,03,06,24,,,,,1.40,1.13,0.83*06
$GPGSV,3,1,12,22,70,334,16,14,65,225,18,18,56,067,25,21,36,147,30*7D
$GPGSV,3,2,12,24,31,062,26,19,29,289,,06,25,243,16,03,22,261,18*73
$GPGSV,3,3,12,09,15,040,31,11,04,318,,15,03,051,15,38,,,*43
$GPRMC,210022.000,A,3932.3318,N,10501.0068,W,0.00,313.66,120113,,,A*77
$GPGGA,210023.000,3932.3318,N,10501.0068,W,1,8,1.13,1745.2,M,-21.0,M,,*55
$GPGSA,M,3,22,18,21,09,14,03,06,24,,,,,1.40,1.13,0.83*06
$GPGSV,3,1,12,22,70,334,16,14,65,225,18,18,56,067,23,21,36,147,30*7B
$GPGSV,3,2,12,24,31,062,27,19,29,289,,06,25,243,16,03,22,261,18*72
$GPGSV,3,3,12,09,14,040,30,11,04,318,,15,03,051,15,38,,,*43
$GPRMC,210023.000,A,3932.3318,N,10501.0068,W,0.00,313.66,120113,,,A*76
$GPGGA,210024.000,3932.3318,N,10501.0068,W,1,8,1.13,1745.2,M,-21.0,M,,*52
$GPGSA,M,3,22,18,21,09,14,03,06,24,,,,,1.40,1.13,0.83*06
$GPGSV,3,1,12,22,70,334,17,14,65,225,18,18,56,067,22,21,36,147,30*7B
$GPGSV,3,2,12,24,31,062,27,19,29,289,,06,25,243,17,03,22,261,17*7C
$GPGSV,3,3,12,09,14,040,29,11,04,318,,15,03,051,15,38,,,*4B
$GPRMC,210024.000,A,3932.3318,N,10501.0068,W,0.00,313.66,120113,,,A*71
$GPGGA,210025.000,3932.3318,N,10501.0068,W,1,8,1.13,1745.2,M,-21.0,M,,*53
$GPGSA,M,3,22,18,21,09,14,03,06,24,,,,,1.40,1.13,0.83*06
$GPGSV,3,1,12,22,70,334,18,14,65,225,18,18,56,067,23,21,36,147,30*75
$GPGSV,3,2,12,24,31,062,27,19,29,289,,06,25,243,17,03,22,261,16*7D
$GPGSV,3,3,12,09,14,040,29,11,05,318,,15,03,051,,38,,,*4E
$GPRMC,210025.000,A,3932.3318,N,10501.0068,W,0.00,313.66,120113,,,A*70
$GPGGA,210026.000,3932.3318,N,10501.0068,W,1,8,1.13,1745.2,M,-21.0,M,,*50
$GPGSA,M,3,22,18,21,09,14,03,06,24,,,,,1.40,1.13,0.83*06
$GPGSV,3,1,12,22,70,334,19,14,65,225,18,18,56,067,24,21,36,147,30*73
$GPGSV,3,2,12,24,31,062,27,19,29,289,,06,25,243,17,03,22,261,15*7E
$GPGSV,3,3,12,09,14,040,28,11,05,318,,15,03,051,,41,,,*41
$GPRMC,210026.000,A,3932.3318,N,10501.0068,W,0.00,313.66,120113,,,A*73
$GPGGA,210027.000,3932.3318,N,10501.0068,W,1,8,1.13,1745.2,M,-21.0,M,,*51
$GPGSA,M,3,22,18,21,09,14,03,06,24,,,,,1.40,1.13,0.83*06
$GPGSV,3,1,12,22,70,334,18,14,65,225,17,18,56,067,23,21,36,147,30*7A
$GPGSV,3,2,12,24,31,062,28,19,29,289,,06,25,243,17,03,22,261,15*71
$GPGSV,3,3,12,09,14,040,27,11,05,318,,15,03,051,,41,,,*4E
$GPRMC,210027.000,A,3932.3318,N,10501.0068,W,0.00,313.66,120113,,,A*72
$GPGGA,210028.000,3932.3318,N,10501.0068,W,1,8,1.13,1745.2,M,-21.0,M,,*5E
$GPGSA,M,3,22,18,21,09,14,03,06,24,,,,,1.40,1.13,0.83*06
$GPGSV,3,1,12,22,70,334,17,14,65,226,17,18,56,067,21,21,36,147,31*75
$GPGSV,3,2,12,24,31,062,28,19,29,289,,06,25,243,17,03,22,261,16*72
$GPGSV,3,3,12,09,14,040,28,11,05,318,,15,03,051,,41,,,*41
$GPRMC,210028.000,A,3932.3318,N,10501.0068,W,0.00,313.66,120113,,,A*7D
$GPGGA,210029.000,3932.3318,N,10501.0068,W,1,8,1.13,1745.2,M,-21.0,M,,*5F
$GPGSA,M,3,22,18,21,09,14,03,06,24,,,,,1.40,1.13,0.83*06
$GPGSV,3,1,12,22,70,334,17,14,65,226,16,18,56,067,23,21,36,147,31*76
$GPGSV,3,2,12,24,31,062,17,19,29,289,,06,25,243,17,03,22,261,15*7D
$GPGSV,3,3,12,09,14,040,27,11,05,318,,15,03,051,,41,,,*4E
$GPRMC,210029.000,A,3932.3318,N,10501.0068,W,0.00,313.66,120113,,,A*7C
$GPGGA,210030.000,3932.3318,N,10501.0068,W,1,8,1.13,1745.2,M,-21.0,M,,*57
$GPGSA,M,3,22,18,21,09,14,03,06,24,,,,,1.40,1.13,0.83*06
$GPGSV,3,1,12,22,70,334,18,14,65,226,15,18,56,067,23,21,36,147,31*7A
$GPGSV,3,2,12,24,31,062,18,19,29,289,,06,25,243,18,03,22,261,15*7D
$GPGSV,3,3,12,09,14,040,27,11,05,318,,15,03,051,,41,,,*4E
$GPRMC,210030.000,A,3932.3318,N,10501.0068,W,0.00,313.66,120113,,,A*74
$GPGGA,210031.000,3932.3318,N,10501.0068,W,1,8,1.13,1745.2,M,-21.0,M,,*56
$GPGSA,M,3,22,18,21,09,14,03,06,24,,,,,1.40,1.13,0.83*06
$GPGSV,3,1,12,22,70,334,25,14,65,226,16,18,56,067,31,21,36,147,30*75
$GPGSV,3,2,12,24,31,062,29,19,29,289,,06,25,243,18,03,22,261,15*7F
$GPGSV,3,3,12,09,14,040,28,11,05,318,,15,03,051,,41,,,*41
$GPRMC,210031.000,A,3932.3318,N,10501.0068,W,0.00,313.66,120113,,,A*75
$GPGGA,210032.000,3932.3318,N,10501.0068,W,1,7,2.10,1745.2,M,-21.0,M,,*5A
$GPGSA,M,3,22,18,09,14,03,06,24,,,,,,2.26,2.10,0.84*01
$GPGSV,3,1,12,22,70,334,25,14,65,226,17,18,56,067,30,21,36,147,*76
$GPGSV,3,2,12,24,31,062,28,19,29,289,,06,25,243,17,03,22,261,15*71
$GPGSV,3,3,12,09,14,040,29,11,05,318,,15,03,051,,41,,,*40
$GPRMC,210032.000,A,3932.3318,N,10501.0068,W,0.00,313.66,120113,,,A*76
$GPGGA,210033.000,3932.3318,N,10501.0068,W,1,7,2.10,1745.2,M,-21.0,M,,*5B
$GPGSA,M,3,22,18,09,14,03,06,24,,,,,,2.26,2.10,0.84*01
$GPGSV,3,1,12,22,70,334,25,14,65,226,18,18,56,067,29,21,36,147,*71
$GPGSV,3,2,12,24,31,062,27,19,29,289,,06,25,243,17,03,22,261,14*7F
$GPGSV,3,3,12,09,14,040,28,11,05,318,,15,03,051,,43,,,*43
$GPRMC,210033.000,A,3932.3318,N,10501.0068,W,0.00,313.66,120113,,,A*77
$GPGGA,210034.000,3932.3318,N,10501.0068,W,1,5,2.66,1745.2,M,-21.0,M,,*5F
$GPGSA,M,3,22,18,09,14,06,,,,,,,,2.80,2.66,0.86*0B
$GPGSV,3,1,12,22,70,334,25,14,65,226,19,18,56,067,28,21,36,147,*71
$GPGSV,3,2,12,24,31,062,,19,29,289,,06,25,243,17,03,22,261,*7F
$GPGSV,3,3,12,09,14,040,28,11,05,318,,15,03,051,,43,,,*43
$GPRMC,210034.000,A,3932.3318,N,10501.0068,W,0.00,313.66,120113,,,A*70
$GPGGA,210035.000,3932.3318,N,10501.0068,W,1,5,2.66,1745.2,M,-21.0,M,,*5E
$GPGSA,M,3,22,18,09,14,06,,,,,,,,2.80,2.66,0.86*0B
$GPGSV,3,1,12,22,70,334,25,14,65,226,18,18,56,067,28,21,36,147,*70
$GPGSV,3,2,12,24,31,062,,19,29,289,,06,25,243,17,03,22,261,*7F
$GPGSV,3,3,12,09,14,040,27,11,05,318,,15,03,051,,43,,,*4C
$GPRMC,210035.000,A,3932.3318,N,10501.0068,W,0.00,313.66,120113,,,A*71
$GPGGA,210036.000,3932.3318,N,10501.0068,W,1,6,2.37,1745.2,M,-21.0,M,,*5A
$GPGSA,M,3,22,18,09,14,06,24,,,,,,,2.52,2.37,0.86*06
$GPGSV,3,1,12,22,70,335,25,14,65,226,18,18,56,067,28,21,36,147,*71
$GPGSV,3,2,12,24,31,062,20,19,29,289,,06,25,243,17,03,22,261,*7D
$GPGSV,3,3,12,09,14,040,27,11,05,318,,15,03,051,,43,,,*4C
$GPRMC,210036.000,A,3932.3318,N,10501.0068,W,0.00,313.66,120113,,,A*72
$GPGGA,210037.000,3932.3318,N,10501.0068,W,1,6,2.36,1745.2,M,-21.0,M,,*5A
$GPGSA,M,3,22,18,09,14,06,24,,,,,,,2.51,2.36,0.86*04
$GPGSV,3,1,12,22,70,335,25,14,65,226,18,18,56,067,28,21,36,147,*71
$GPGSV,3,2,12,24,31,062,20,19,29,289,,06,25,243,17,03,22,261,*7D
$GPGSV,3,3,12,09,14,040,27,11,05,318,,15,03,051,,43,,,*4C
$GPRMC,210037.000,A,3932.3318,N,10501.0068,W,0.00,313.66,120113,,,A*73
$GPGGA,210038.000,3932.3318,N,10501.0068,W,1,6,2.36,1745.2,M,-21.0,M,,*55
$GPGSA,M,3,22,18,09,14,06,24,,,,,,,2.51,2.36,0.86*04
$GPGSV,3,1,12,22,70,335,26,14,65,226,18,18,56,067,28,21,36,147,*72
$GPGSV,3,2,12,24,31,062,20,19,29,289,,06,25,243,16,03,22,261,*7C
$GPGSV,3,3,12,09,14,040,27,11,05,318,,15,03,051,,43,,,*4C
$GPRMC,210038.000,A,3932.3318,N,10501.0068,W,0.00,313.66,120113,,,A*7C
$GPGGA,210039.000,3932.3318,N,10501.0068,W,1,6,2.37,1745.2,M,-21.0,M,,*55
$GPGSA,M,3,22,18,09,14,06,24,,,,,,,2.52,2.37,0.85*05
$GPGSV,3,1,12,22,70,335,25,14,65,226,18,18,56,067,28,21,36,147,*71
$GPGSV,3,2,12,24,31,062,19,19,29,289,,06,25,243,16,03,22,261,*76
$GPGSV,3,3,12,09,14,040,27,11,05,318,,15,03,051,,43,,,*4C
$GPRMC,210039.000,A,3932.3318,N,10501.0068,W,0.00,313.66,120113,,,A*7D
$GPGGA,210040.000,3932.3318,N,10501.0068,W,1,6,2.37,1745.2,M,-21.0,M,,*5B
$GPGSA,M,3,22,18,09,14,06,24,,,,,,,2.52,2.37,0.86*06
$GPGSV,3,1,12,22,70,335,25,14,65,226,18,18,56,067,28,21,36,147,*71
$GPGSV,3,2,12,24,31,062,20,19,29,289,,06,25,243,16,03,22,261,*7C
$GPGSV,3,3,12,09,14,040,26,11,05,318,,15,03,051,,45,,,*4B
$GPRMC,210040.000,A,3932.3318,N,10501.0068,W,0.00,313.66,120113,,,A*73
$GPGGA,210041.000,3932.3318,N,10501.0068,W,1,6,2.37,1745.2,M,-21.0,M,,*5A
$GPGSA,M,3,22,18,09,14,06,24,,,,,,,2.52,2.37,0.86*06
$GPGSV,3,1,12,22,70,335,24,14,65,226,18,18,56,067,28,21,36,147,*70
$GPGSV,3,2,12,24,31,062,20,19,29,289,,06,25,243,16,03,22,261,*7C
$GPGSV,3,3,12,09,14,040,26,11,05,318,,15,03,051,,45,,,*4B
$GPRMC,210041.000,A,3932.3318,N,10501.0068,W,0.00,313.66,120113,,,A*72
$GPGGA,210042.000,3932.3318,N,10501.0068,W,1,6,2.37,1745.2,M,-21.0,M,,*59
$GPGSA,M,3,22,18,09,14,06,24,,,,,,,2.52,2.37,0.86*06
$GPGSV,3,1,12,22,70,335,25,14,65,226,18,18,56,067,28,21,36,147,*71
$GPGSV,3,2,12,24,31,062,21,19,29,289,,06,25,243,16,03,22,261,*7D
$GPGSV,3,3,12,09,14,040,26,11,05,318,,15,03,051,,45,,,*4B
$GPRMC,210042.000,A,3932.3318,N,10501.0068,W,0.00,313.66,120113,,,A*71
$GPGGA,210043.000,3932.3318,N,10501.0068,W,1,6,2.37,1745.2,M,-21.0,M,,*58
$GPGSA,M,3,22,18,09,14,06,24,,,,,,,2.52,2.37,0.86*06
$GPGSV,3,1,12,22,70,335,24,14,65,226,18,18,56,067,28,21,36,147,*70
$GPGSV,3,2,12,24,31,062,20,19,29,289,,06,25,243,16,03,22,261,*7C
$GPGSV,3,3,12,09,14,040,27,11,05,318,,15,03,051,,45,,,*4A
$GPRMC,210043.000,A,3932.3318,N,10501.0068,W,0.00,313.66,120113,,,A*70
$GPGGA,210044.000,3932.3318,N,10501.0068,W,1,6,2.37,1745.2,M,-21.0,M,,*5F
$GPGSA,M,3,22,18,09,14,06,24,,,,,,,2.52,2.37,0.85*05
$GPGSV,3,1,12,22,70,335,23,14,65,226,19,18,56,067,18,21,36,147,*75
$GPGSV,3,2,12,24,31,062,19,19,29,289,,06,25,243,16,03,22,261,*76
$GPGSV,3,3,12,09,14,040,28,11,05,318,,15,03,051,,45,,,*45
$GPRMC,210044.000,A,3932.3318,N,10501.0068,W,0.00,313.66,120113,,,A*77
$GPGGA,210045.000,3932.3318,N,10501.0068,W,1,7,1.24,1745.2,M,-21.0,M,,*5E
$GPGSA,M,3,22,18,21,09,14,06,24,,,,,,1.50,1.24,0.85*06
$GPGSV,3,1,12,22,70,335,22,14,65,226,18,18,56,067,18,21,36,147,20*77
$GPGSV,3,2,12,24,31,062,18,19,29,289,,06,25,243,16,03,22,261,*77
$GPGSV,3,3,12,09,14,040,27,11,05,318,,15,03,051,,45,,,*4A
$GPRMC,210045.000,A,3932.3318,N,10501.0068,W,0.00,313.66,120113,,,A*76
$GPGGA,210046.000,3932.3318,N,10501.0068,W,1,7,1.24,1745.2,M,-21.0,M,,*5D
$GPGSA,M,3,22,18,21,09,14,06,24,,,,,,1.50,1.24,0.85*06
$GPGSV,3,1,12,22,70,335,23,14,65,226,18,18,56,067,25,21,36,147,17*7C
$GPGSV,3,2,12,24,31,062,18,19,29,289,,06,25,243,16,03,22,261,*77
$GPGSV,3,3,12,09,14,040,26,11,05,318,,15,03,051,,46,,,*48
$GPRMC,210046.000,A,3932.3318,N,10501.0068,W,0.00,313.66,120113,,,A*75
$GPGGA,210047.000,3932.3318,N,10501.0068,W,1,7,1.24,1745.2,M,-21.0,M,,*5C
$GPGSA,M,3,22,18,21,09,14,06,24,,,,,,1.50,1.24,0.85*06
$GPGSV,3,1,12,22,70,335,24,14,65,226,18,18,56,067,26,21,36,147,17*78
$GPGSV,3,2,12,24,31,062,19,19,29,289,,06,25,243,15,03,22,261,*75
$GPGSV,3,3,12,09,14,040,25,11,05,318,,15,03,051,,46,,,*4B
$GPRMC,210047.000,A,3932.3318,N,10501.0068,W,0.00,313.66,120113,,,A*74
$GPGGA,210048.000,3932.3318,N,10501.0068,W,1,7,1.24,1745.2,M,-21.0,M,,*53
$GPGSA,M,3,22,18,21,09,14,06,24,,,,,,1.50,1.24,0.85*06
$GPGSV,3,1,12,22,70,335,26,14,65,226,18,18,56,067,27,21,36,147,21*7E
$GPGSV,3,2,12,24,31,062,20,19,29,289,,06,25,243,15,03,22,261,*7F
$GPGSV,3,3,12,09,14,040,25,11,05,318,,15,03,051,,46,,,*4B
$GPRMC,210048.000,A,3932.3318,N,10501.0068,W,0.00,313.66,120113,,,A*7B
$GPGGA,210049.000,3932.3318,N,10501.0068,W,1,7,1.25,1745.2,M,-21.0,M,,*53
$GPGSA,M,3,22,18,21,09,14,06,24,,,,,,2.02,1.25,1.59*03
$GPGSV,3,1,12,22,70,335,27,14,65,226,28,18,56,067,25,21,36,147,22*7D
$GPGSV,3,2,12,24,31,062,21,19,29,289,,06,25,243,15,03,22,261,*7E
$GPGSV,3,3,12,09,14,040,24,11,05,318,,15,03,051,,46,,,*4A
$GPRMC,210049.000,A,3932.3318,N,10501.0068,W,0.00,313.66,120113,,,A*7A
$GPGGA,210050.000,3932.3318,N,10501.0068,W,1,7,1.25,1745.2,M,-21.0,M,,*5B
$GPGSA,M,3,22,18,21,09,14,06,24,,,,,,2.02,1.25,1.59*03
$GPGSV,3,1,12,22,70,335,17,14,65,226,28,18,56,067,23,21,36,147,22*78
$GPGSV,3,2,12,24,31,062,22,19,29,289,,06,25,243,15,03,22,261,*7D
$GPGSV,3,3,12,09,14,040,23,11,05,318,,15,03,051,,46,,,*4D
$GPRMC,210050.000,A,3932.3318,N,10501.0068,W,0.00,313.66,120113,,,A*72
$GPGGA,210051.000,3932.3318,N,10501.0068,W,1,8,1.13,1745.2,M,-21.0,M,,*50
$GPGSA,M,3,22,18,21,09,14,03,06,24,,,,,1.40,1.13,0.83*06
$GPGSV,3,1,12,22,70,335,17,14,65,226,28,18,56,067,22,21,36,147,22*79
$GPGSV,3,2,12,24,31,062,24,19,29,289,,06,25,243,15,03,22,261,17*7D
$GPGSV,3,3,12,09,14,040,23,11,05,318,,15,03,051,,46,,,*4D
$GPRMC,210051.000,A,3932.3318,N,10501.0068,W,0.00,313.66,120113,,,A*73
$GPGGA,210052.000,3932.3318,N,10501.0068,W,1,8,1.13,1745.2,M,-21.0,M,,*53
$GPGSA,M,3,22,18,21,09,14,03,06,24,,,,,1.40,1.13,0.83*06
$GPGSV,3,1,12,22,70,335,16,14,65,226,28,18,56,067,20,21,36,147,22*7A
$GPGSV,3,2,12,24,31,062,26,19,29,289,,06,25,243,16,03,22,261,18*73
$GPGSV,3,3,12,09,14,040,21,11,05,318,,15,03,051,,47,,,*4E
$GPRMC,210052.000,A,3932.3318,N,10501.0068,W,0.00,313.66,120113,,,A*70
$GPGGA,210053.000,3932.3257,N,10501.0028,W,1,8,1.13,1738.4,M,-21.0,M,,*50
$GPGSA,M,3,22,18,21,09,14,03,06,24,,,,,1.40,1.13,0.83*06
$GPGSV,3,1,12,22,70,335,17,14,65,226,29,18,56,067,28,21,36,147,22*72
$GPGSV,3,2,12,24,31,062,27,19,29,289,,06,25,243,18,03,22,261,18*7C
$GPGSV,3,3,12,09,14,040,23,11,05,318,,15,03,051,,47,,,*4C
$GPRMC,210053.000,A,3932.3257,N,10501.0028,W,2.70,42.94,120113,,,A*40
$GPGGA,210054.000,3932.3256,N,10501.0020,W,1,8,1.13,1738.1,M,-21.0,M,,*5B
$GPGSA,M,3,22,18,21,09,14,03,06,24,,,,,1.40,1.13,0.83*06
$GPGSV,3,1,12,22,70,335,27,14,65,226,29,18,56,067,28,21,36,147,23*70
$GPGSV,3,2,12,24,31,062,28,19,29,289,,06,25,243,18,03,22,261,17*7C
$GPGSV,3,3,12,09,14,040,21,11,05,318,,15,03,051,,47,,,*4E
$GPRMC,210054.000,A,3932.3256,N,10501.0020,W,2.66,40.03,120113,,,A*45
$GPGGA,210055.000,3932.3262,N,10501.0019,W,1,7,2.10,1737.9,M,-21.0,M,,*5F
$GPGSA,M,3,22,18,09,14,03,06,24,,,,,,2.26,2.10,0.84*01
$GPGSV,3,1,12,22,70,335,26,14,65,226,30,18,56,067,29,21,36,147,*79
$GPGSV,3,2,12,24,31,062,21,19,29,289,,06,25,243,25,03,22,261,17*7B
$GPGSV,3,3,12,09,14,039,20,11,05,318,,15,03,051,,47,,,*41
$GPRMC,210055.000,A,3932.3262,N,10501.0019,W,2.46,37.55,120113,,,A*48
$GPGGA,210056.000,3932.3268,N,10501.0014,W,1,9,1.13,1737.9,M,-21.0,M,,*55
$GPGSA,M,3,22,18,21,09,14,11,03,06,24,,,,1.40,1.13,0.83*06
$GPGSV,3,1,12,22,70,335,28,14,65,226,29,18,56,067,28,21,36,147,20*7C
$GPGSV,3,2,12,24,31,062,29,19,29,289,,06,25,243,18,03,22,261,17*7D
$GPGSV,3,3,12,09,14,039,18,11,05,318,17,15,03,051,,47,,,*4C
$GPRMC,210056.000,A,3932.3268,N,10501.0014,W,2.39,34.03,120113,,,A*44
$GPGGA,210057.000,3932.3273,N,10501.0012,W,1,9,1.13,1737.9,M,-21.0,M,,*58
$GPGSA,M,3,22,18,21,09,14,11,03,06,24,,,,1.40,1.13,0.83*06
$GPGSV,3,1,12,22,70,335,31,14,65,226,18,18,56,067,26,21,36,147,21*79
$GPGSV,3,2,12,24,31,062,28,19,29,289,,06,25,243,18,03,22,261,17*7C
$GPGSV,3,3,12,09,14,039,18,11,05,318,24,15,03,051,,47,,,*4C
$GPRMC,210057.000,A,3932.3273,N,10501.0012,W,2.11,28.41,120113,,,A*48
$GPGGA,210058.000,3932.3276,N,10501.0015,W,1,9,1.13,1737.8,M,-21.0,M,,*54
$GPGSA,M,3,22,18,21,09,14,11,03,06,24,,,,1.40,1.13,0.83*06
$GPGSV,3,1,12,22,70,335,33,14,65,226,18,18,56,067,24,21,36,147,21*79
$GPGSV,3,2,12,24,31,062,27,19,29,289,,06,25,243,27,03,22,261,17*7F
$GPGSV,3,3,12,09,14,039,19,11,05,318,26,15,03,051,,47,,,*4F
$GPRMC,210058.000,A,3932.3276,N,10501.0015,W,0.00,24.23,120113,,,A*4F
$GPGGA,210059.000,3932.3264,N,10501.0010,W,1,9,1.13,1737.4,M,-21.0,M,,*5F
$GPGSA,M,3,22,18,21,09,14,11,03,06,24,,,,1.40,1.13,0.83*06
$GPGSV,3,1,12,22,70,335,33,14,65,226,19,18,56,067,22,21,36,147,17*7B
$GPGSV,3,2,12,24,31,062,28,19,29,289,,06,25,243,28,03,22,261,17*7F
$GPGSV,3,3,12,09,14,039,19,11,05,318,31,15,03,051,,49,,,*47
$GPRMC,210059.000,A,3932.3264,N,10501.0010,W,0.00,24.23,120113,,,A*48
$GPGGA,210100.000,3932.3256,N,10501.0004,W,1,9,1.13,1737.4,M,-21.0,M,,*56
$GPGSA,M,3,22,18,21,09,14,11,03,06,24,,,,1.40,1.13,0.83*06
$GPGSV,3,1,12,22,70,335,35,14,65,226,20,18,56,067,23,21,36,147,21*73
$GPGSV,3,2,12,24,31,062,21,19,29,289,,06,25,243,27,03,22,261,18*76
$GPGSV,3,3,12,09,14,039,19,11,05,318,23,15,03,051,,49,,,*44
$GPRMC,210100.000,A,3932.3256,N,10501.0004,W,0.00,146.59,120113,,,A*79
$GPGGA,210101.000,3932.3220,N,10500.9976,W,1,9,1.13,1737.8,M,-21.0,M,,*5E
$GPGSA,M,3,22,18,21,09,14,11,03,06,24,,,,1.40,1.13,0.83*06
$GPGSV,3,1,12,22,70,335,35,14,65,226,21,18,56,067,23,21,36,147,28*7B
$GPGSV,3,2,12,24,31,062,21,19,29,289,,06,25,243,17,03,22,261,26*78
$GPGSV,3,3,12,09,14,039,19,11,05,318,24,15,03,051,,49,,,*43
$GPRMC,210101.000,A,3932.3220,N,10500.9976,W,5.47,144.71,120113,,,A*73
$GPGGA,210102.000,3932.3205,N,10500.9965,W,1,9,1.14,1738.5,M,-21.0,M,,*5D
$GPGSA,M,3,22,18,21,09,14,11,03,06,24,,,,1.85,1.14,1.46*00
$GPGSV,3,1,12,22,70,335,34,14,65,226,23,18,56,067,23,21,36,147,29*79
$GPGSV,3,2,12,24,31,062,20,19,29,289,,06,25,243,25,03,22,261,19*74
$GPGSV,3,3,12,09,14,039,20,11,05,318,24,15,03,051,,49,,,*49
$GPRMC,210102.000,A,3932.3205,N,10500.9965,W,11.67,144.09,120113,,,A*4D
$GPGGA,210103.000,3932.3190,N,10500.9944,W,1,9,1.14,1739.0,M,-21.0,M,,*54
$GPGSA,M,3,22,18,21,09,14,11,03,06,24,,,,1.85,1.14,1.46*00
$GPGSV,3,1,12,22,70,335,34,14,65,226,24,18,56,067,24,21,36,147,29*79
$GPGSV,3,2,12,24,31,062,19,19,29,289,,06,25,243,24,03,22,261,20*75
$GPGSV,3,3,12,09,14,039,19,11,05,318,24,15,03,051,,49,,,*43
$GPRMC,210103.000,A,3932.3190,N,10500.9944,W,13.25,143.33,120113,,,A*4A
$GPGGA,210104.000,3932.3161,N,10500.9915,W,1,9,1.14,1739.2,M,-21.0,M,,*5B
$GPGSA,M,3,22,18,21,09,14,11,03,06,24,,,,1.85,1.14,1.46*00
$GPGSV,3,1,12,22,70,335,34,14,65,226,24,18,56,068,24,21,36,147,29*76
$GPGSV,3,2,12,24,31,062,19,19,29,289,,06,25,243,17,03,22,261,22*77
$GPGSV,3,3,12,09,14,039,20,11,05,318,25,15,03,051,,49,,,*48
$GPRMC,210104.000,A,3932.3161,N,10500.9915,W,13.30,142.79,120113,,,A*4C
$GPGGA,210105.000,3932.3133,N,10500.9889,W,1,9,1.14,1739.5,M,-21.0,M,,*5E
$GPGSA,A,3,22,18,21,09,14,11,03,06,24,,,,1.85,1.14,1.46*0C
$GPGSV,3,1,12,22,70,335,34,14,65,226,24,18,56,068,26,51,44,183,*75
$GPGSV,3,2,12,21,36,147,27,24,31,062,21,19,29,289,,06,25,243,17*7B
$GPGSV,3,3,12,03,22,261,21,09,14,039,20,11,05,318,24,15,03,051,*71
$GPRMC,210105.000,A,3932.3133,N,10500.9889,W,11.25,139.49,120113,,,A*47
$GPGGA,210106.000,3932.3108,N,10500.9862,W,1,9,1.00,1740.5,M,-21.0,M,,*5B
$GPGSA,A,3,22,18,21,09,14,11,03,06,24,,,,1.68,1.00,1.35*0E
$GPGSV,3,1,12,22,70,335,34,14,65,226,22,18,56,068,26,51,44,183,*73
$GPGSV,3,2,12,21,36,147,26,24,31,062,20,19,29,289,,06,25,243,17*7B
$GPGSV,3,3,12,03,22,261,29,09,14,039,27,11,05,318,22,15,03,051,*78
$GPRMC,210106.000,A,3932.3108,N,10500.9862,W,9.23,139.08,120113,,,A*73
$GPGGA,210107.000,3932.3097,N,10500.9835,W,1,9,1.00,1740.6,M,-21.0,M,,*5C
$GPGSA,A,3,22,18,21,09,14,11,03,06,24,,,,1.68,1.00,1.35*0E
$GPGSV,3,1,12,22,70,335,34,14,65,226,23,18,56,068,26,51,44,183,*72
$GPGSV,3,2,12,21,36,147,25,24,31,062,20,19,29,289,,06,25,243,24*78
$GPGSV,3,3,12,03,22,261,28,09,14,039,26,11,05,318,23,15,03,051,*79
$GPRMC,210107.000,A,3932.3097,N,10500.9835,W,8.97,107.04,120113,,,A*78
$GPGGA,210108.000,3932.3099,N,10500.9797,W,1,9,1.00,1741.0,M,-21.0,M,,*5D
$GPGSA,A,3,22,18,21,09,14,11,03,06,24,,,,1.68,1.00,1.35*0E
$GPGSV,3,1,12,22,70,335,27,14,65,226,24,18,56,068,25,51,44,183,*74
$GPGSV,3,2,12,21,36,147,24,24,31,062,20,19,29,289,,06,25,243,25*78
$GPGSV,3,3,12,03,22,261,29,09,14,039,25,11,05,318,25,15,03,051,*7D
$GPRMC,210108.000,A,3932.3099,N,10500.9797,W,11.84,78.34,120113,,,A*7E
$GPGGA,210109.000,3932.3114,N,10500.9759,W,1,9,0.99,1741.0,M,-21.0,M,,*5B
$GPGSA,A,3,22,18,21,09,14,11,03,06,24,,,,1.68,0.99,1.35*0F
$GPGSV,3,1,12,22,70,335,28,14,65,226,24,18,56,068,32,51,44,183,*7D
$GPGSV,3,2,12,21,36,147,24,24,31,062,21,19,29,289,,06,25,243,26*7A
$GPGSV,3,3,12,03,22,261,28,09,14,039,25,11,05,318,26,15,03,051,*7F
$GPRMC,210109.000,A,3932.3114,N,10500.9759,W,13.88,61.88,120113,,,A*78
$GPGGA,210110.000,3932.3142,N,10500.9721,W,1,9,0.99,1740.9,M,-21.0,M,,*57
$GPGSA,A,3,22,18,21,09,14,11,03,06,24,,,,1.68,0.99,1.35*0F
$GPGSV,3,1,12,22,70,335,26,14,65,226,22,18,56,068,24,51,44,183,*72
$GPGSV,3,2,12,21,36,147,24,24,31,062,22,19,29,289,,06,25,243,28*77
$GPGSV,3,3,12,03,22,261,28,09,14,039,24,11,05,318,16,15,03,051,*7D
$GPRMC,210110.000,A,3932.3142,N,10500.9721,W,14.90,52.03,120113,,,A*71
$GPGGA,210111.000,3932.3179,N,10500.9687,W,1,9,1.00,1740.2,M,-21.0,M,,*59
$GPGSA,A,3,22,18,21,09,14,11,03,06,24,,,,1.68,1.00,1.35*0E
$GPGSV,3,1,12,22,70,335,16,14,65,226,24,18,56,068,25,51,44,183,*76
$GPGSV,3,2,12,21,36,147,24,24,31,062,22,19,29,289,,06,25,243,26*79
$GPGSV,3,3,12,03,22,261,29,09,14,039,23,11,05,318,16,15,03,051,*7B
$GPRMC,210111.000,A,3932.3179,N,10500.9687,W,17.36,42.89,120113,,,A*79
$GPGGA,210112.000,3932.3231,N,10500.9652,W,1,9,0.99,1740.0,M,-21.0,M,,*5E
$GPGSA,A,3,22,18,21,09,14,11,03,06,24,,,,1.68,0.99,1.35*0F
$GPGSV,3,1,12,22,70,335,16,14,65,226,31,18,56,068,25,51,44,183,*72
$GPGSV,3,2,12,21,36,147,25,24,31,062,23,19,29,289,,06,25,243,24*7B
$GPGSV,3,3,12,03,22,261,28,09,14,039,22,11,05,318,16,15,03,051,*7B
$GPRMC,210112.000,A,3932.3231,N,10500.9652,W,19.82,36.65,120113,,,A*7D
$GPGGA,210113.000,3932.3268,N,10500.9609,W,1,9,0.99,1741.5,M,-21.0,M,,*59
$GPGSA,A,3,22,18,21,09,14,11,03,06,24,,,,1.68,0.99,1.35*0F
$GPGSV,3,1,12,22,70,335,17,14,65,226,32,18,56,068,25,51,44,183,*70
$GPGSV,3,2,12,21,36,147,23,24,31,062,23,19,29,289,,06,25,243,23*7A
$GPGSV,3,3,12,03,22,261,27,09,14,039,21,11,05,318,18,15,03,051,*79
$GPRMC,210113.000,A,3932.3268,N,10500.9609,W,19.77,37.44,120113,,,A*76
$GPGGA,210114.000,3932.3310,N,10500.9570,W,1,9,0.99,1741.2,M,-21.0,M,,*5A
$GPGSA,A,3,22,18,21,09,14,11,03,06,24,,,,1.68,0.99,1.35*0F
$GPGSV,3,1,12,22,70,335,17,14,65,226,32,18,56,068,18,21,36,147,22*74
$GPGSV,3,2,12,48,35,219,,24,31,062,24,19,29,289,,06,25,243,21*7A
$GPGSV,3,3,12,03,22,261,28,09,14,039,22,11,05,318,17,15,03,051,*7A
$GPRMC,210114.000,A,3932.3310,N,10500.9570,W,16.99,34.39,120113,,,A*74
$GPGGA,210115.000,3932.3336,N,10500.9538,W,1,9,0.99,1740.7,M,-21.0,M,,*57
$GPGSA,A,3,22,18,21,09,14,11,03,06,24,,,,1.68,0.99,1.35*0F
$GPGSV,3,1,12,22,70,335,24,14,65,226,31,18,56,068,18,21,36,147,23*76
$GPGSV,3,2,12,48,35,219,,24,31,062,24,19,29,289,,06,25,243,23*78
$GPGSV,3,3,12,03,22,261,28,09,14,039,22,11,05,318,17,15,03,051,*7A
$GPRMC,210115.000,A,3932.3336,N,10500.9538,W,13.05,27.51,120113,,,A*71
$GPGGA,210116.000,3932.3371,N,10500.9528,W,1,9,0.94,1740.2,M,-21.0,M,,*5E
$GPGSA,A,3,22,18,21,09,14,11,03,06,24,,,,1.24,0.94,0.80*05
$GPGSV,3,1,12,22,70,335,24,14,65,226,29,18,56,068,20,21,36,147,24*73
$GPGSV,3,2,12,48,35,219,,24,31,062,23,19,29,289,,06,25,243,25*79
$GPGSV,3,3,12,03,22,261,28,09,14,039,22,11,05,318,17,15,03,051,*7A
$GPRMC,210116.000,A,3932.3371,N,10500.9528,W,13.73,9.72,120113,,,A*4C
$GPGGA,210117.000,3932.3409,N,10500.9530,W,1,9,0.99,1740.0,M,-21.0,M,,*51
$GPGSA,A,3,22,18,21,09,14,11,03,06,24,,,,1.68,0.99,1.35*0F
$GPGSV,3,1,12,22,70,335,24,14,65,226,30,18,56,068,22,21,36,147,26*7B
$GPGSV,3,2,12,48,35,219,,24,31,062,23,19,29,289,,06,25,243,24*78
$GPGSV,3,3,12,03,22,261,28,09,14,039,20,11,05,318,18,15,03,051,*77
$GPRMC,210117.000,A,3932.3409,N,10500.9530,W,13.73,354.96,120113,,,A*4D
$GPGGA,210118.000,3932.3448,N,10500.9546,W,1,9,0.99,1739.3,M,-21.0,M,,*57
$GPGSA,A,3,22,18,21,09,14,11,03,06,24,,,,1.68,0.99,1.35*0F
$GPGSV,3,1,12,22,70,335,24,14,65,226,31,18,56,068,23,21,36,147,25*78
$GPGSV,3,2,12,48,35,219,,24,31,062,22,19,29,289,,06,25,243,17*79
$GPGSV,3,3,12,03,22,261,20,09,14,039,21,11,05,318,19,15,03,051,*7F
$GPRMC,210118.000,A,3932.3448,N,10500.9546,W,14.58,337.57,120113,,,A*40
$GPGGA,210119.000,3932.3485,N,10500.9578,W,1,9,0.99,1739.0,M,-21.0,M,,*59
$GPGSA,A,3,22,18,21,09,14,11,03,06,24,,,,1.68,0.99,1.35*0F
$GPGSV,3,1,12,22,70,335,23,14,65,226,29,18,56,068,30,21,36,147,26*77
$GPGSV,3,2,12,48,35,219,,24,31,062,23,19,29,289,,06,25,243,17*78
$GPGSV,3,3,12,03,22,261,22,09,14,039,20,11,05,318,18,15,03,051,*7D
$GPRMC,210119.000,A,3932.3485,N,10500.9578,W,15.67,324.99,120113,,,A*40
$GPGGA,210120.000,3932.3516,N,10500.9612,W,1,9,0.99,1738.4,M,-21.0,M,,*52
$GPGSA,A,3,22,18,21,09,14,11,03,06,24,,,,1.68,0.99,1.35*0F
$GPGSV,3,1,12,22,70,335,23,14,65,226,16,18,56,068,30,21,36,147,25*78
$GPGSV,3,2,12,48,35,219,,24,31,062,24,19,29,289,,06,25,243,17*7F
$GPGSV,3,3,12,03,22,261,20,09,14,039,21,11,05,318,17,15,03,051,*71
$GPRMC,210120.000,A,3932.3516,N,10500.9612,W,16.96,322.13,120113,,,A*47
$GPGGA,210121.000,3932.3556,N,10500.9653,W,1,9,0.99,1738.0,M,-21.0,M,,*56
$GPGSA,A,3,22,18,21,09,14,11,03,06,24,,,,1.68,0.99,1.35*0F
$GPGSV,3,1,12,22,70,335,22,14,65,226,16,18,56,068,30,21,36,147,25*79
$GPGSV,3,2,12,48,35,219,,24,31,062,25,19,29,289,,06,25,243,26*7C
$GPGSV,3,3,12,03,22,261,19,09,14,039,20,11,05,318,18,15,03,051,*75
$GPRMC,210121.000,A,3932.3556,N,10500.9653,W,18.32,323.14,120113,,,A*41
$GPGGA,210122.000,3932.3598,N,10500.9694,W,1,9,0.99,1737.8,M,-21.0,M,,*5B
$GPGSA,A,3,22,18,21,09,14,11,03,06,24,,,,1.68,0.99,1.35*0F
$GPGSV,3,1,12,22,70,335,22,14,65,226,17,18,56,068,30,21,36,147,24*79
$GPGSV,3,2,12,48,35,219,,24,31,062,24,19,29,289,,06,25,243,26*7D
$GPGSV,3,3,12,03,22,261,18,09,14,039,21,11,05,318,18,15,03,051,*75
$GPRMC,210122.000,A,3932.3598,N,10500.9694,W,19.43,324.29,120113,,,A*45
$GPGGA,210123.000,3932.3646,N,10500.9735,W,1,9,0.94,1737.2,M,-21.0,M,,*57
$GPGSA,M,3,22,18,21,09,14,11,03,06,24,,,,1.23,0.94,0.80*0E
$GPGSV,3,1,12,22,70,335,22,14,65,226,17,18,56,068,31,21,36,147,25*79
$GPGSV,3,2,12,24,31,062,22,19,29,289,,06,25,243,24,03,22,261,18*76
$GPGSV,3,3,12,09,14,039,20,11,05,318,18,15,03,051,,34,,,*4C
$GPRMC,210123.000,A,3932.3646,N,10500.9735,W,20.95,328.36,120113,,,A*4D
$GPGGA,210124.000,3932.3697,N,10500.9771,W,1,9,0.99,1736.8,M,-21.0,M,,*5A
$GPGSA,M,3,22,18,21,09,14,11,03,06,24,,,,1.68,0.99,1.35*03
$GPGSV,3,1,12,22,70,335,22,14,65,226,19,18,56,068,30,21,36,147,26*75
$GPGSV,3,2,12,24,31,062,20,19,29,289,,06,25,243,16,03,22,261,20*7E
$GPGSV,3,3,12,09,14,039,20,11,05,318,18,15,03,051,,34,,,*4C
$GPRMC,210124.000,A,3932.3697,N,10500.9771,W,20.80,332.53,120113,,,A*4A
$GPGGA,210125.000,3932.3747,N,10500.9805,W,1,9,0.99,1736.4,M,-21.0,M,,*57
$GPGSA,M,3,22,18,21,09,14,11,03,06,24,,,,1.68,0.99,1.35*03
$GPGSV,3,1,12,22,70,335,22,14,65,226,20,18,56,068,23,21,36,147,26*7D
$GPGSV,3,2,12,24,31,062,20,19,29,289,,06,25,243,16,03,22,261,21*7F
$GPGSV,3,3,12,09,14,039,21,11,05,318,18,15,03,051,,34,,,*4D
$GPRMC,210125.000,A,3932.3747,N,10500.9805,W,20.33,332.88,120113,,,A*45
$GPGGA,210126.000,3932.3802,N,10500.9832,W,1,9,0.99,1735.4,M,-21.0,M,,*5D
$GPGSA,M,3,22,18,21,09,14,11,03,06,24,,,,1.68,0.99,1.35*03
$GPGSV,3,1,12,22,70,335,21,14,65,226,19,18,56,068,24,21,36,147,24*71
$GPGSV,3,2,12,24,31,062,29,19,29,289,,06,25,243,16,03,22,261,22*75
$GPGSV,3,3,12,09,14,039,20,11,05,318,17,15,03,051,,34,,,*43
$GPRMC,210126.000,A,3932.3802,N,10500.9832,W,20.89,336.97,120113,,,A*47
$GPGGA,210127.000,3932.3856,N,10500.9855,W,1,9,0.94,1734.6,M,-21.0,M,,*52
$GPGSA,M,3,22,18,21,09,14,11,03,06,24,,,,1.23,0.94,0.80*0E
$GPGSV,3,1,12,22,70,335,20,14,65,226,20,18,56,068,25,21,36,147,23*7C
$GPGSV,3,2,12,24,31,062,30,19,29,289,,06,25,243,16,03,22,261,22*7D
$GPGSV,3,3,12,09,14,039,21,11,05,318,16,15,03,051,,34,,,*43
$GPRMC,210127.000,A,3932.3856,N,10500.9855,W,20.59,338.89,120113,,,A*4A
$GPGGA,210128.000,3932.3913,N,10500.9880,W,1,9,0.99,1734.0,M,-21.0,M,,*5E
$GPGSA,M,3,22,18,21,09,14,11,03,06,24,,,,1.68,0.99,1.35*03
$GPGSV,3,1,12,22,70,335,19,14,65,226,22,18,56,068,18,21,36,147,21*78
$GPGSV,3,2,12,24,31,062,28,19,29,289,,06,25,243,18,03,22,261,23*7B
$GPGSV,3,3,12,09,14,039,20,11,05,318,16,15,03,051,,34,,,*42
$GPRMC,210128.000,A,3932.3913,N,10500.9880,W,21.79,340.02,120113,,,A*42
$GPGGA,210129.000,3932.3972,N,10500.9902,W,1,9,0.99,1732.8,M,-21.0,M,,*5D
$GPGSA,M,3,22,18,21,09,14,11,03,06,24,,,,1.68,0.99,1.35*03
$GPGSV,3,1,12,22,70,335,18,14,65,226,29,18,56,068,18,21,36,147,22*71
$GPGSV,3,2,12,24,31,062,21,19,29,289,,06,25,243,19,03,22,261,23*73
$GPGSV,3,3,12,09,14,039,19,11,05,318,16,15,03,051,,34,,,*48
$GPRMC,210129.000,A,3932.3972,N,10500.9902,W,21.99,344.88,120113,,,A*47
$GPGGA,210130.000,3932.4037,N,10500.9926,W,1,9,0.99,1731.4,M,-21.0,M,,*53
$GPGSA,M,3,22,18,21,09,14,11,03,06,24,,,,1.68,0.99,1.35*03
$GPGSV,3,1,12,22,70,335,18,14,65,226,29,18,56,068,18,21,36,147,24*77
$GPGSV,3,2,12,24,31,062,21,19,29,289,,06,25,243,26,03,22,261,23*7F
$GPGSV,3,3,12,09,14,039,19,11,05,318,15,15,03,051,,35,,,*4A
$GPRMC,210130.000,A,3932.4037,N,10500.9926,W,23.80,346.26,120113,,,A*4A
$GPGGA,210131.000,3932.4095,N,10500.9945,W,1,8,1.13,1730.4,M,-21.0,M,,*5C
$GPGSA,M,3,22,18,21,09,14,03,06,24,,,,,1.85,1.13,1.46*07
$GPGSV,3,1,12,22,70,335,19,14,65,226,29,18,56,068,20,21,36,147,32*7A
$GPGSV,3,2,12,24,31,062,22,19,29,289,,06,25,243,26,03,22,261,23*7C
$GPGSV,3,3,12,09,14,039,18,11,05,318,,15,03,051,,35,,,*4F
$GPRMC,210131.000,A,3932.4095,N,10500.9945,W,22.85,347.38,120113,,,A*4C
$GPGGA,210132.000,3932.4154,N,10500.9960,W,1,8,1.13,1728.4,M,-21.0,M,,*5D
$GPGSA,M,3,22,18,21,09,14,03,06,24,,,,,1.85,1.13,1.46*07
$GPGSV,3,1,12,22,70,335,21,14,65,226,30,18,56,068,22,21,36,147,30*79
$GPGSV,3,2,12,24,31,062,22,19,29,289,,06,25,243,26,03,22,261,21*7E
$GPGSV,3,3,12,09,14,039,19,11,05,318,,15,03,051,,35,,,*4E
$GPRMC,210132.000,A,3932.4154,N,10500.9960,W,21.92,349.60,120113,,,A*42
$GPGGA,210133.000,3932.4212,N,10500.9970,W,1,8,1.13,1727.4,M,-21.0,M,,*53
$GPGSA,M,3,22,18,21,09,14,03,06,24,,,,,1.85,1.13,1.46*07
$GPGSV,3,1,12,22,70,335,23,14,65,226,31,18,56,068,23,21,36,147,29*73
$GPGSV,3,2,12,24,31,062,24,19,29,289,,06,25,243,27,03,22,261,20*78
$GPGSV,3,3,12,09,14,039,20,11,05,318,,15,02,051,,35,,,*45
$GPRMC,210133.000,A,3932.4212,N,10500.9970,W,19.96,351.64,120113,,,A*41
$GPGGA,210134.000,3932.4260,N,10500.9974,W,1,7,2.23,1726.7,M,-21.0,M,,*58
$GPGSA,M,3,22,18,09,14,03,06,24,,,,,,2.73,2.23,1.57*0E
$GPGSV,3,1,12,22,70,335,24,14,65,226,31,18,56,068,25,21,36,147,28*73
$GPGSV,3,2,12,24,31,062,32,19,29,289,,06,25,243,25,03,22,261,21*7C
$GPGSV,3,3,12,09,14,039,19,11,05,318,,15,02,051,,35,,,*4F
$GPRMC,210134.000,A,3932.4260,N,10500.9974,W,17.26,356.25,120113,,,A*40
$GPGGA,210135.000,3932.4302,N,10500.9973,W,1,8,1.13,1726.3,M,-21.0,M,,*50
$GPGSA,M,3,22,18,21,09,14,03,06,24,,,,,1.85,1.13,1.46*07
$GPGSV,3,1,12,22,70,335,24,14,65,226,31,18,56,068,27,21,36,147,27*7E
$GPGSV,3,2,12,24,31,062,32,19,29,289,,06,25,243,24,03,22,261,22*7E
$GPGSV,3,3,12,09,14,039,18,11,05,318,,15,02,051,,35,,,*4E
$GPRMC,210135.000,A,3932.4302,N,10500.9973,W,15.70,1.65,120113,,,A*47
$GPGGA,210136.000,3932.4341,N,10500.9966,W,1,8,1.13,1724.8,M,-21.0,M,,*59
$GPGSA,M,3,22,18,21,09,14,03,06,24,,,,,1.85,1.13,1.46*07
$GPGSV,3,1,12,22,70,335,22,14,65,226,31,18,56,068,26,21,36,147,25*7B
$GPGSV,3,2,12,24,31,062,17,19,29,289,,06,25,243,24,03,22,261,22*79
$GPGSV,3,3,12,09,14,039,18,11,05,318,,15,02,051,,35,,,*4E
$GPRMC,210136.000,A,3932.4341,N,10500.9966,W,14.02,8.37,120113,,,A*4D
$GPGGA,210137.000,3932.4375,N,10500.9951,W,1,8,1.13,1724.0,M,-21.0,M,,*53
$GPGSA,M,3,22,18,21,09,14,03,06,24,,,,,1.85,1.13,1.46*07
$GPGSV,3,1,12,22,70,335,23,14,65,226,30,18,56,068,25,21,36,147,26*7B
$GPGSV,3,2,12,24,31,062,18,19,29,289,,06,25,243,24,03,22,261,23*77
$GPGSV,3,3,12,09,14,039,18,11,05,318,,15,02,051,,36,,,*4D
$GPRMC,210137.000,A,3932.4375,N,10500.9951,W,12.31,30.37,120113,,,A*72
$GPGGA,210138.000,3932.4401,N,10500.9921,W,1,8,1.13,1723.5,M,-21.0,M,,*5D
$GPGSA,M,3,22,18,21,09,14,03,06,24,,,,,1.85,1.13,1.46*07
$GPGSV,3,1,12,22,70,335,23,14,65,226,23,18,56,068,27,21,36,147,23*7E
$GPGSV,3,2,12,24,31,062,26,19,29,289,,06,25,243,25,03,22,261,24*7C
$GPGSV,3,3,12,09,14,039,19,11,05,318,,15,02,051,,36,,,*4C
$GPRMC,210138.000,A,3932.4401,N,10500.9921,W,12.47,48.17,120113,,,A*72
$GPGGA,210139.000,3932.4416,N,10500.9880,W,1,8,1.13,1722.0,M,-21.0,M,,*54
$GPGSA,M,3,22,18,21,09,14,03,06,24,,,,,1.85,1.13,1.46*07
$GPGSV,3,1,12,22,70,335,25,14,65,226,22,18,56,068,28,21,35,147,21*77
$GPGSV,3,2,12,24,31,062,24,19,29,289,,06,25,243,26,03,22,261,25*7C
$GPGSV,3,3,12,09,14,039,21,11,05,318,,15,02,051,,36,,,*47
$GPRMC,210139.000,A,3932.4416,N,10500.9880,W,13.14,71.53,120113,,,A*72
$GPGGA,210140.000,3932.4418,N,10500.9825,W,1,7,1.19,1720.1,M,-21.0,M,,*5D
$GPGSA,M,3,22,18,21,09,14,03,24,,,,,,1.95,1.19,1.55*08
$GPGSV,3,1,12,22,70,336,27,14,65,226,23,18,56,068,21,21,35,147,30*7E
$GPGSV,3,2,12,24,31,062,16,19,29,289,,06,25,243,,03,22,261,27*7B
$GPGSV,3,3,12,09,14,039,20,11,05,318,,15,02,051,,36,,,*46
$GPRMC,210140.000,A,3932.4418,N,10500.9825,W,15.30,82.56,120113,,,A*74
$GPGGA,210141.000,3932.4425,N,10500.9769,W,1,8,1.13,1717.5,M,-21.0,M,,*50
$GPGSA,M,3,22,18,21,09,14,03,06,24,,,,,1.85,1.13,1.46*07
$GPGSV,3,1,12,22,70,336,28,14,65,226,30,18,56,068,21,21,35,147,29*7B
$GPGSV,3,2,12,24,31,062,16,19,29,289,,06,25,243,21,03,22,261,27*78
$GPGSV,3,3,12,09,14,039,21,11,05,318,,15,02,051,,36,,,*47
$GPRMC,210141.000,A,3932.4425,N,10500.9769,W,16.74,87.70,120113,,,A*7E
$GPGGA,210142.000,3932.4433,N,10500.9709,W,1,8,1.13,1716.9,M,-21.0,M,,*5F
$GPGSA,M,3,22,18,21,09,14,03,06,24,,,,,1.85,1.13,1.46*07
$GPGSV,3,1,12,22,70,336,28,14,65,226,30,18,56,068,22,21,35,147,28*79
$GPGSV,3,2,12,24,30,061,16,19,29,289,,06,25,243,20,03,22,261,28*74
$GPGSV,3,3,12,09,14,039,21,11,05,318,,15,02,051,,36,,,*47
$GPRMC,210142.000,A,3932.4433,N,10500.9709,W,18.59,89.17,120113,,,A*72
$GPGGA,210143.000,3932.4430,N,10500.9637,W,1,9,1.02,1716.3,M,-21.0,M,,*5A
$GPGSA,M,3,22,18,21,09,14,19,03,06,24,,,,1.77,1.02,1.45*01
$GPGSV,3,1,12,22,70,336,28,14,65,226,30,18,56,068,23,21,35,147,27*77
